$GPGSV,3,2,12,32,27,088,21,17,26,239,14,10,20,276,,31,19,038,21*71
$GPGSV,3,3,12,01,17,149,22,02,10,314,,25,02,353,,41,,,*41
$GPRMC,091512.000,A,5058.4376,N,00505.6884,E,0.43,302.36,170313,,,A*68
$GPGGA,091513.000,5058.4376,N,00505.6883,E,1,8,1.01,21.9,M,47.4,M,,*6D
$GPGSA,A,3,32,01,31,13,17,23,04,20,,,,,1.30,1.01,0.83*0A
$GPGSV,3,1,11,23,79,136,24,13,59,202,21,20,53,094,22,04,46,297,18*71
$GPGSV,3,2,11,32,27,088,20,17,26,239,16,10,20,276,,31,19,038,20*70
$GPGSV,3,3,11,01,17,149,21,02,10,314,,25,02,353,*44
$GPRMC,091513.000,A,5058.4376,N,00505.6883,E,0.39,302.36,170313,,,A*63
$GPGGA,091514.000,5058.4376,N,00505.6881,E,1,8,1.00,21.9,M,47.4,M,,*69
$GPGSA,A,3,32,01,31,13,17,23,04,20,,,,,1.30,1.00,0.83*0B
$GPGSV,3,1,11,23,79,136,24,13,59,202,22,20,53,094,23,04,46,297,18*73
$GPGSV,3,2,11,32,27,088,20,17,26,239,16,10,20,276,,31,19,038,21*71
$GPGSV,3,3,11,01,17,149,21,02,10,314,,25,02,353,*44
$GPRMC,091514.000,A,5058.4376,N,00505.6881,E,0.58,302.36,170313,,,A*61
$GPGGA,091515.000,5058.4378,N,00505.6879,E,1,8,1.01,21.9,M,47.4,M,,*60
$GPGSA,A,3,32,01,31,13,17,23,04,20,,,,,1.30,1.01,0.83*0A
$GPGSV,3,1,11,23,79,136,24,13,59,202,22,20,53,094,23,04,46,297,17*7C
$GPGSV,3,2,11,32,27,088,19,17,26,239,16,10,20,276,,31,19,038,21*7B
$GPGSV,3,3,11,01,17,149,21,02,10,314,,25,02,353,*44
$GPRMC,091515.000,A,5058.4378,N,00505.6879,E,0.56,302.36,170313,,,A*67
$GPGGA,091516.000,5058.4378,N,00505.6877,E,1,8,1.01,21.9,M,47.4,M,,*6D
$GPGSA,A,3,32,01,31,13,17,23,04,20,,,,,1.30,1.01,0.83*0A
$GPGSV,3,1,11,23,79,136,24,13,59,202,23,20,53,094,22,04,46,297,17*7C
$GPGSV,3,2,11,32,27,088,19,17,26,239,16,10,20,276,,31,19,038,22*78
$GPGSV,3,3,11,01,17,149,22,02,10,314,,25,02,353,*47
$GPRMC,091516.000,A,5058.4378,N,00505.6877,E,0.44,302.36,170313,,,A*69
$GPGGA,091517.000,5058.4379,N,00505.6876,E,1,8,1.00,21.9,M,47.4,M,,*6D
$GPGSA,A,3,32,01,31,13,17,23,04,20,,,,,1.30,1.00,0.83*0B
$GPGSV,3,1,11,23,79,136,24,13,59,202,24,20,53,094,22,04,46,297,17*7B
$GPGSV,3,2,11,32,27,088,19,17,26,239,15,10,20,276,,31,19,038,22*7B
$GPGSV,3,3,11,01,17,149,23,02,10,314,,25,02,353,*46
$GPRMC,091517.000,A,5058.4379,N,00505.6876,E,0.80,313.08,170313,,,A*6D
$GPGGA,091518.000,5058.4380,N,00505.6870,E,1,8,1.01,21.8,M,47.4,M,,*62
$GPGSA,M,3,32,01,31,13,17,23,04,20,,,,,1.30,1.01,0.83*06
$GPGSV,3,1,12,23,79,136,25,13,59,202,24,20,53,094,23,04,46,297,17*78
$GPGSV,3,2,12,32,27,088,19,17,26,239,14,10,20,276,,31,19,038,22*79
$GPGSV,3,3,12,01,17,149,23,02,10,314,,25,02,353,,43,,,*42
$GPRMC,091518.000,A,5058.4380,N,00505.6870,E,0.78,295.41,170313,,,A*67
$GPGGA,091519.000,5058.4381,N,00505.6865,E,1,8,1.01,21.7,M,47.4,M,,*69
$GPGSA,M,3,32,01,31,13,17,23,04,20,,,,,1.30,1.01,0.83*06
$GPGSV,3,1,12,23,79,136,25,13,59,202,24,20,53,094,23,04,46,297,17*78
$GPGSV,3,2,12,32,27,088,19,17,26,239,16,10,20,276,,31,18,038,22*7A
$GPGSV,3,3,12,01,17,149,23,02,10,314,,25,02,353,,43,,,*42
$GPRMC,091519.000,A,5058.4381,N,00505.6865,E,0.75,297.58,170313,,,A*64
$GPGGA,091520.000,5058.4382,N,00505.6863,E,1,8,1.01,21.6,M,47.4,M,,*67
$GPGSA,M,3,32,01,31,13,17,23,04,20,,,,,1.30,1.01,0.83*06
$GPGSV,3,1,12,23,79,136,26,13,59,202,24,20,53,094,23,04,46,297,17*7B
$GPGSV,3,2,12,17,26,239,15,32,26,088,19,10,20,276,,31,18,038,22*78
$GPGSV,3,3,12,01,17,149,23,02,10,314,,25,02,353,,43,,,*42
$GPRMC,091520.000,A,5058.4382,N,00505.6863,E,0.36,297.58,170313,,,A*6C
$GPGGA,091521.000,5058.4383,N,00505.6858,E,1,8,1.01,21.5,M,47.4,M,,*6C
$GPGSA,M,3,32,01,31,13,17,23,04,20,,,,,1.30,1.01,0.83*06
$GPGSV,3,1,12,23,79,136,26,13,59,202,24,20,53,094,23,04,46,297,17*7B
$GPGSV,3,2,12,17,26,239,15,32,26,088,19,10,20,276,,31,18,038,21*7B
$GPGSV,3,3,12,01,16,149,23,02,10,314,,25,02,353,,43,,,*43
$GPRMC,091521.000,A,5058.4383,N,00505.6858,E,0.42,297.58,170313,,,A*67
$GPGGA,091522.000,5058.4385,N,00505.6857,E,1,8,1.01,21.5,M,47.4,M,,*66
$GPGSA,M,3,32,01,31,13,17,23,04,20,,,,,1.30,1.01,0.83*06
$GPGSV,3,1,12,23,79,136,26,13,59,202,24,20,53,094,23,04,46,297,17*7B
$GPGSV,3,2,12,17,26,239,16,32,26,088,19,10,20,276,,31,18,038,21*78
$GPGSV,3,3,12,01,16,149,23,02,10,314,,25,02,353,,43,,,*43
$GPRMC,091522.000,A,5058.4385,N,00505.6857,E,0.41,297.58,170313,,,A*6E
$GPGGA,091523.000,5058.4387,N,00505.6855,E,1,8,1.01,21.4,M,47.4,M,,*66
$GPGSA,M,3,32,01,31,13,17,23,04,20,,,,,1.30,1.01,0.83*06
$GPGSV,3,1,12,23,79,136,26,13,59,202,24,20,53,094,23,04,46,297,17*7B
$GPGSV,3,2,12,17,26,239,17,32,26,088,19,10,20,276,,31,18,038,21*79
$GPGSV,3,3,12,01,16,149,22,02,10,314,,25,02,353,,43,,,*42
$GPRMC,091523.000,A,5058.4387,N,00505.6855,E,0.68,351.81,170313,,,A*6B
$GPGGA,091524.000,5058.4388,N,00505.6852,E,1,8,1.02,21.4,M,47.4,M,,*6A
$GPGSA,A,3,32,01,31,13,17,23,04,20,,,,,1.78,1.02,1.47*0C
$GPGSV,3,1,11,23,79,136,26,13,59,202,24,20,53,094,23,04,46,297,17*78
$GPGGA,103139.000,5058.4316,N,00505.7034,E,1,10,0.92,43.7,M,47.4,M,,*50
$GPGSA,A,3,07,23,20,10,08,30,04,13,02,16,,,1.56,0.92,1.26*03
$GPGSV,3,1,11,13,81,072,33,04,58,242,30,23,53,065,42,10,52,291,40*71
$GPGSV,3,2,11,02,37,301,29,07,31,169,31,20,22,113,30,30,13,048,33*71
$GPGSV,3,3,11,16,09,074,28,08,06,182,21,05,01,291,*46
$GPRMC,103139.000,A,5058.4316,N,00505.7034,E,0.61,84.91,170313,,,A*5B
$GPGGA,103140.000,5058.4313,N,00505.7035,E,1,10,0.86,43.5,M,47.4,M,,*5D
$GPGSA,A,3,07,23,20,10,08,30,04,13,02,16,,,1.17,0.86,0.78*09
$GPGSV,3,1,11,13,81,072,41,04,58,242,37,23,53,065,44,10,52,291,47*72
$GPGSV,3,2,11,02,37,301,38,07,31,169,39,20,22,113,37,30,13,048,41*7B
$GPGSV,3,3,11,16,09,074,35,08,06,182,23,05,01,291,*48
$GPRMC,103140.000,A,5058.4313,N,00505.7035,E,0.92,185.00,170313,,,A*65
$GPGGA,103141.000,5058.4312,N,00505.7039,E,1,10,0.86,43.4,M,47.4,M,,*50
$GPGSA,A,3,07,23,20,10,08,30,04,13,02,16,,,1.17,0.86,0.78*09
$GPGSV,3,1,11,13,81,072,41,04,58,242,37,23,53,065,45,10,52,291,47*73
$GPGSV,3,2,11,02,37,301,38,07,31,169,39,20,22,113,37,30,13,048,41*7B
$GPGSV,3,3,11,16,09,074,35,08,06,182,25,05,01,291,*4E
$GPRMC,103141.000,A,5058.4312,N,00505.7039,E,1.23,113.42,170313,,,A*6B
$GPGGA,103142.000,5058.4310,N,00505.7046,E,1,10,0.86,43.2,M,47.4,M,,*5F
$GPGSA,A,3,07,23,20,10,08,30,04,13,02,16,,,1.17,0.86,0.78*09
$GPGSV,3,1,11,13,81,072,41,04,58,242,37,23,53,065,46,10,52,291,47*70
$GPGSV,3,2,11,02,37,301,38,07,31,169,39,20,22,113,37,30,13,048,41*7B
$GPGSV,3,3,11,16,09,074,35,08,06,182,26,05,01,291,*4D
$GPRMC,103142.000,A,5058.4310,N,00505.7046,E,1.73,104.08,170313,,,A*6F
$GPGGA,103143.000,5058.4310,N,00505.7047,E,1,10,0.86,43.2,M,47.4,M,,*5F
$GPGSA,A,3,07,23,20,10,08,30,04,13,02,16,,,1.17,0.86,0.78*09
$GPGSV,3,1,11,13,81,072,40,04,58,241,37,23,53,065,47,10,52,291,47*73
$GPGSV,3,2,11,02,37,301,38,07,31,169,39,20,22,113,37,30,13,048,41*7B
$GPGSV,3,3,11,16,09,074,35,08,06,182,26,05,01,291,*4D
$GPRMC,103143.000,A,5058.4310,N,00505.7047,E,0.33,104.08,170313,,,A*6A
$GPGGA,103144.000,5058.4311,N,00505.7047,E,1,10,0.92,43.2,M,47.4,M,,*5C
$GPGSA,A,3,07,23,20,10,08,30,04,13,02,16,,,1.56,0.92,1.26*03
$GPGSV,3,1,11,13,81,072,40,04,58,241,37,23,53,065,48,10,52,291,47*7C
$GPGSV,3,2,11,02,37,301,38,07,31,169,39,20,22,113,37,30,13,048,41*7B
$GPGSV,3,3,11,16,09,074,35,08,06,182,27,05,01,291,*4C
$GPRMC,103144.000,A,5058.4311,N,00505.7047,E,0.35,104.08,170313,,,A*6A
$GPGGA,103145.000,5058.4312,N,00505.7047,E,1,10,0.92,43.3,M,47.4,M,,*5F
$GPGSA,A,3,07,23,20,10,08,30,04,13,02,16,,,1.56,0.92,1.26*03
$GPGSV,3,1,11,13,81,072,40,04,58,241,37,23,53,065,48,10,52,291,47*7C
$GPGSV,3,2,11,02,37,301,37,07,31,169,39,20,22,113,37,30,13,048,41*74
$GPGSV,3,3,11,16,09,074,35,08,06,182,27,05,01,291,*4C
$GPRMC,103145.000,A,5058.4312,N,00505.7047,E,0.39,104.08,170313,,,A*64
$GPGGA,103146.000,5058.4313,N,00505.7047,E,1,10,0.86,43.1,M,47.4,M,,*5A
$GPGSA,A,3,07,23,20,10,08,30,04,13,02,16,,,1.17,0.86,0.78*09
$GPGSV,3,1,11,13,81,072,40,04,58,241,37,23,53,065,48,10,52,291,47*7C
$GPGSV,3,2,11,02,37,301,37,07,31,169,39,20,22,113,37,30,13,048,41*74
$GPGSV,3,3,11,16,09,074,35,08,06,182,27,05,01,291,*4C
$GPRMC,103146.000,A,5058.4313,N,00505.7047,E,0.05,104.08,170313,,,A*69
$GPGGA,103147.000,5058.4313,N,00505.7047,E,1,10,0.86,43.2,M,47.4,M,,*58
$GPGSA,A,3,07,23,20,10,08,30,04,13,02,16,,,1.17,0.86,0.78*09
$GPGSV,3,1,11,13,81,072,40,04,58,241,37,23,53,065,48,10,52,291,47*7C
$GPGSV,3,2,11,02,37,301,37,07,31,169,39,20,22,113,37,30,13,048,41*74
$GPGSV,3,3,11,16,09,074,35,08,06,182,27,05,01,291,*4C
$GPRMC,103147.000,A,5058.4313,N,00505.7047,E,0.88,298.76,170313,,,A*62
$GPGGA,103148.000,5058.4316,N,00505.7041,E,1,10,0.86,43.3,M,47.4,M,,*55
$GPGSA,A,3,07,23,20,10,08,30,04,13,02,16,,,1.17,0.86,0.78*09
$GPGSV,3,1,11,13,81,072,40,04,58,241,38,23,53,065,48,10,52,291,47*73
$GPGSV,3,2,11,02,37,301,37,07,31,169,39,20,22,113,37,30,13,048,41*74
$GPGSV,3,3,11,16,09,074,36,08,06,182,28,05,01,291,*40
$GPRMC,103148.000,A,5058.4316,N,00505.7041,E,1.85,290.39,170313,,,A*61
$GPGGA,103149.000,5058.4316,N,00505.7040,E,1,10,0.86,43.3,M,47.4,M,,*55
$GPGSA,A,3,07,23,20,10,08,30,04,13,02,16,,,1.17,0.86,0.78*09
$GPGSV,3,1,11,13,81,072,40,04,58,241,38,23,53,065,48,10,52,291,47*73
$GPGSV,3,2,11,02,37,301,37,07,31,169,39,20,22,113,37,30,13,048,41*74
$GPGSV,3,3,11,16,09,074,36,08,06,182,28,05,01,291,*40
$GPRMC,103149.000,A,5058.4316,N,00505.7040,E,0.35,290.39,170313,,,A*6B
$GPGGA,103150.000,5058.4316,N,00505.7039,E,1,10,0.86,43.1,M,47.4,M,,*51
$GPGSA,A,3,07,23,20,10,08,30,04,13,02,16,,,1.17,0.86,0.78*09
$GPGSV,3,1,11,13,81,072,41,04,58,241,38,23,53,065,48,10,52,291,47*72
$GPGSV,3,2,11,02,37,301,37,07,31,169,39,20,22,113,37,30,13,048,41*74
$GPGSV,3,3,11,16,09,074,36,08,06,182,28,05,01,291,*40
$GPRMC,103150.000,A,5058.4316,N,00505.7039,E,0.12,290.39,170313,,,A*68
$GPGGA,103151.000,5058.4315,N,00505.7042,E,1,10,0.86,42.8,M,47.4,M,,*57
$GPGSA,A,3,07,23,20,10,08,30,04,13,02,16,,,1.17,0.86,0.78*09
$GPGSV,3,1,11,13,81,072,41,04,58,241,38,23,53,065,48,10,52,291,47*72
$GPGSV,3,2,11,02,37,301,37,07,31,169,39,20,22,113,37,30,13,048,41*74
$GPGSV,3,3,11,16,09,074,36,08,06,182,28,05,01,291,*40
$GPRMC,103151.000,A,5058.4315,N,00505.7042,E,0.96,102.46,170313,,,A*6A
$GPGGA,103152.000,5058.4315,N,00505.7047,E,1,10,0.86,42.8,M,47.4,M,,*51
$GPGSA,A,3,07,23,20,10,08,30,04,13,02,16,,,1.17,0.86,0.78*09
$GPGSV,3,1,11,13,80,071,41,04,58,241,38,23,53,065,48,10,52,291,47*70
$GPGSV,3,2,11,02,37,301,37,07,31,169,39,20,22,113,37,30,13,048,41*74
$GPGSV,3,3,11,16,09,074,36,08,06,182,28,05,01,291,*40
$GPRMC,103152.000,A,5058.4315,N,00505.7047,E,1.39,101.14,170313,,,A*6C
$GPGGA,103153.000,5058.4315,N,00505.7049,E,1,10,0.86,42.7,M,47.4,M,,*51
$GPGSA,A,3,07,23,20,10,08,30,04,13,02,16,,,1.17,0.86,0.78*09
$GPGSV,3,1,11,13,80,071,41,04,58,241,38,23,53,065,48,10,52,291,47*70
$GPGSV,3,2,11,02,37,301,37,07,31,169,39,20,22,113,37,30,13,048,41*74
$GPGSV,3,3,11,16,09,074,36,08,06,182,28,05,01,291,*40
$GPRMC,103153.000,A,5058.4315,N,00505.7049,E,0.28,101.14,170313,,,A*62
$GPGGA,103154.000,5058.4316,N,00505.7048,E,1,10,0.86,42.5,M,47.4,M,,*56
$GPGSA,A,3,07,23,20,10,08,30,04,13,02,16,,,1.17,0.86,0.78*09
$GPGSV,3,1,11,13,80,071,41,04,58,241,39,23,53,065,48,10,52,291,47*71
$GPGSV,3,2,11,02,37,301,37,07,31,169,39,20,22,113,37,30,13,048,41*74
$GPGSV,3,3,11,16,09,074,37,08,06,182,28,05,01,291,*41
$GPRMC,103154.000,A,5058.4316,N,00505.7048,E,0.24,101.14,170313,,,A*6B
$GPGGA,103155.000,5058.4315,N,00505.7051,E,1,10,0.86,42.3,M,47.4,M,,*5A
$GPGSA,A,3,07,23,20,10,08,30,04,13,02,16,,,1.17,0.86,0.78*09
$GPGSV,3,1,11,13,80,071,41,04,58,241,39,23,53,065,48,10,52,291,47*71
$GPGSV,3,2,11,02,37,301,37,07,31,169,39,20,22,113,37,30,13,048,41*74
$GPGSV,3,3,11,16,09,074,37,08,06,182,28,05,01,291,*41
$GPRMC,103155.000,A,5058.4315,N,00505.7051,E,1.10,101.25,170313,,,A*65
$GPGGA,103156.000,5058.4315,N,00505.7052,E,1,10,0.86,42.2,M,47.4,M,,*5B
$GPGSA,A,3,07,23,20,10,08,30,04,13,02,16,,,1.17,0.86,0.78*09
$GPGSV,3,1,11,13,80,071,41,04,58,241,39,23,53,065,48,10,52,291,47*71
$GPGSV,3,2,11,02,37,301,37,07,31,169,39,20,22,113,37,30,13,048,41*74
$GPGSV,3,3,11,16,09,074,37,08,06,182,28,05,01,291,*41
$GPRMC,103156.000,A,5058.4315,N,00505.7052,E,0.18,101.25,170313,,,A*6C
$GPGGA,103219.000,5058.4315,N,00505.7052,E,1,10,0.92,41.9,M,47.4,M,,*5E
$GPGSA,A,3,07,23,20,10,08,30,04,13,02,16,,,1.57,0.92,1.27*03
$GPGSV,3,1,11,13,80,071,33,04,58,241,32,23,53,065,40,10,52,291,39*7E
$GPGSV,3,2,11,02,37,301,31,07,31,169,34,20,22,113,27,30,13,047,34*73
$GPGSV,3,3,11,16,09,074,30,08,06,182,19,05,01,291,*44
$GPRMC,103219.000,A,5058.4315,N,00505.7052,E,0.51,101.30,170313,,,A*6D
$GPGGA,103220.000,5058.4315,N,00505.7050,E,1,10,0.92,41.9,M,47.4,M,,*56
$GPGSA,A,3,07,23,20,10,08,30,04,13,02,16,,,1.57,0.92,1.27*03
$GPGSV,3,1,11,13,80,071,41,04,58,241,40,23,53,065,48,10,52,291,48*70
$GPGSV,3,2,11,02,37,301,38,07,31,169,43,20,22,113,35,30,13,047,42*78
$GPGSV,3,3,11,16,09,074,39,08,06,182,20,05,01,291,*47
$GPRMC,103220.000,A,5058.4315,N,00505.7050,E,0.65,130.19,170313,,,A*6B
$GPGGA,103221.000,5058.4317,N,00505.7047,E,1,10,0.92,41.9,M,47.4,M,,*53
$GPGSA,A,3,07,23,20,10,08,30,04,13,02,16,,,1.57,0.92,1.27*03
$GPGSV,3,1,11,13,80,071,41,04,58,241,40,23,53,065,48,10,52,291,48*70
$GPGSV,3,2,11,02,37,301,38,07,31,169,43,20,22,113,35,30,13,047,42*78
$GPGSV,3,3,11,16,09,074,39,08,06,182,20,05,01,291,*47
$GPRMC,103221.000,A,5058.4317,N,00505.7047,E,0.22,130.19,170313,,,A*6D
$GPGGA,103222.000,5058.4317,N,00505.7047,E,1,10,0.92,41.8,M,47.4,M,,*51
$GPGSA,A,3,07,23,20,10,08,30,04,13,02,16,,,1.57,0.92,1.27*03
$GPGSV,3,1,11,13,80,071,41,04,58,241,40,23,53,065,48,10,52,291,48*70
$GPGSV,3,2,11,02,37,301,38,07,31,169,43,20,22,113,35,30,13,047,42*78
$GPGSV,3,3,11,16,09,074,39,08,06,182,20,05,01,291,*47
$GPRMC,103222.000,A,5058.4317,N,00505.7047,E,0.20,130.19,170313,,,A*6C
$GPGGA,103223.000,5058.4318,N,00505.7047,E,1,10,0.92,41.7,M,47.4,M,,*50
$GPGSA,A,3,07,23,20,10,08,30,04,13,02,16,,,1.57,0.92,1.27*03
$GPGSV,3,1,11,13,80,071,41,04,58,241,40,23,53,065,48,10,52,291,48*70
$GPGSV,3,2,11,02,37,301,38,07,31,169,43,20,22,113,35,30,13,047,42*78
$GPGSV,3,3,11,16,09,074,39,08,06,182,20,05,01,291,*47
$GPRMC,103223.000,A,5058.4318,N,00505.7047,E,0.17,130.19,170313,,,A*66
$GPGGA,103224.000,5058.4315,N,00505.7053,E,1,10,0.92,41.4,M,47.4,M,,*5C
$GPGSA,A,3,07,23,20,10,08,30,04,13,02,16,,,1.57,0.92,1.27*03
$GPGSV,3,1,11,13,80,071,41,04,58,241,40,23,53,065,48,10,52,291,48*70
$GPGSV,3,2,11,02,37,301,38,07,31,169,43,20,22,113,35,30,13,047,42*78
$GPGSV,3,3,11,16,09,074,39,08,06,182,21,05,01,291,*46
$GPRMC,103224.000,A,5058.4315,N,00505.7053,E,0.46,130.19,170313,,,A*6D
$GPGGA,103225.000,5058.4314,N,00505.7054,E,1,10,0.92,41.4,M,47.4,M,,*5B
$GPGSA,A,3,07,23,20,10,08,30,04,13,02,16,,,1.57,0.92,1.27*03
$GPGSV,3,1,11,13,80,070,41,04,58,241,40,23,53,065,48,10,52,291,48*71
$GPGSV,3,2,11,02,37,301,38,07,31,169,43,20,22,113,35,30,13,047,42*78
$GPGSV,3,3,11,16,09,074,39,08,06,182,21,05,01,291,*46
$GPRMC,103225.000,A,5058.4314,N,00505.7054,E,0.64,111.36,170313,,,A*64
$GPGGA,103226.000,5058.4314,N,00505.7054,E,1,10,0.92,41.4,M,47.4,M,,*58
$GPGSA,A,3,07,23,20,10,08,30,04,13,02,16,,,1.57,0.92,1.27*03
$GPGSV,3,1,11,13,80,070,41,04,58,241,40,23,53,065,48,10,52,291,48*71
$GPGSV,3,2,11,02,37,301,38,07,31,169,43,20,22,113,35,30,13,047,42*78
$GPGSV,3,3,11,16,09,074,39,08,06,182,22,05,01,291,*45
$GPRMC,103226.000,A,5058.4314,N,00505.7054,E,0.59,111.36,170313,,,A*69
$GPGGA,103227.000,5058.4314,N,00505.7054,E,1,10,0.92,41.4,M,47.4,M,,*59
$GPGSA,A,3,07,23,20,10,08,30,04,13,02,16,,,1.57,0.92,1.27*03
$GPGSV,3,1,11,13,80,070,41,04,58,241,40,23,53,065,48,10,52,291,48*71
$GPGSV,3,2,11,02,37,301,38,07,31,169,43,20,22,113,35,30,13,047,42*78
$GPGSV,3,3,11,16,09,074,39,08,06,182,22,05,01,291,*45
$GPRMC,103227.000,A,5058.4314,N,00505.7054,E,1.83,261.87,170313,,,A*60
$GPGGA,103228.000,5058.4314,N,00505.7049,E,1,10,0.87,40.6,M,47.4,M,,*5D
$GPGSA,A,3,07,23,20,10,08,30,04,13,02,16,,,1.17,0.87,0.79*09
$GPGSV,3,1,11,13,80,070,41,04,58,241,40,23,53,065,48,10,52,291,48*71
$GPGSV,3,2,11,02,37,301,38,07,31,169,43,20,22,113,35,30,13,047,42*78
$GPGSV,3,3,11,16,09,074,39,08,06,182,23,05,01,291,*44
$GPRMC,103228.000,A,5058.4314,N,00505.7049,E,0.21,261.87,170313,,,A*6A
$GPGGA,103229.000,5058.4315,N,00505.7052,E,1,10,0.87,40.5,M,47.4,M,,*54
$GPGSA,A,3,07,23,20,10,08,30,04,13,02,16,,,1.17,0.87,0.79*09
$GPGSV,3,1,11,13,80,070,41,04,58,241,39,23,53,065,48,10,52,291,48*7F
$GPGSV,3,2,11,02,37,301,38,07,31,169,43,20,22,113,34,30,13,047,42*79
$GPGSV,3,3,11,16,09,074,39,08,06,182,23,05,01,291,*44
$GPRMC,103229.000,A,5058.4315,N,00505.7052,E,1.34,82.18,170313,,,A*5C
$GPGGA,103230.000,5058.4321,N,00505.7053,E,1,10,0.87,40.1,M,47.4,M,,*5E
$GPGSA,A,3,07,23,20,10,08,30,04,13,02,16,,,1.17,0.87,0.79*09
$GPGSV,3,1,11,13,80,070,42,04,58,241,39,23,53,065,48,10,52,291,48*7C
$GPGSV,3,2,11,02,37,301,38,07,31,169,43,20,22,113,34,30,13,047,42*79
$GPGSV,3,3,11,16,09,074,39,08,06,182,23,05,01,291,*44
$GPRMC,103230.000,A,5058.4321,N,00505.7053,E,1.78,350.83,170313,,,A*64
$GPGGA,103231.000,5058.4327,N,00505.7044,E,1,10,0.92,39.6,M,47.4,M,,*52
$GPGSA,A,3,07,23,20,10,08,30,04,13,02,16,,,1.57,0.92,1.27*03
$GPGSV,3,1,11,13,80,070,42,04,58,241,39,23,53,065,48,10,52,291,48*7C
$GPGSV,3,2,11,02,37,301,38,07,31,169,43,20,22,113,34,30,13,047,42*79
$GPGSV,3,3,11,16,09,074,39,08,06,182,23,05,01,291,*44
$GPRMC,103231.000,A,5058.4327,N,00505.7044,E,7.62,345.85,170313,,,A*6A
$GPGGA,103232.000,5058.4338,N,00505.7025,E,1,10,0.92,36.4,M,47.4,M,,*55
$GPGSA,A,3,07,23,20,10,08,30,04,13,02,16,,,1.57,0.92,1.27*03
$GPGSV,3,1,11,13,80,070,42,04,58,241,39,23,53,065,48,10,52,291,48*7C
$GPGSV,3,2,11,02,37,301,38,07,31,169,43,20,21,114,34,30,13,047,42*7D
$GPGSV,3,3,11,16,09,074,39,08,06,182,23,05,01,291,*44
$GPRMC,103232.000,A,5058.4338,N,00505.7025,E,4.38,12.68,170313,,,A*5E
$GPGGA,103233.000,5058.4335,N,00505.7038,E,1,10,0.92,34.4,M,47.4,M,,*57
$GPGSA,A,3,07,23,20,10,08,30,04,13,02,16,,,1.57,0.92,1.27*03
$GPGSV,3,1,11,13,80,070,42,04,58,241,39,23,53,065,48,10,52,291,48*7C
$GPGSV,3,2,11,02,37,301,38,07,31,169,43,20,21,114,35,30,13,047,42*7C
$GPGSV,3,3,11,16,09,074,39,08,06,182,23,05,01,291,*44
$GPRMC,103233.000,A,5058.4335,N,00505.7038,E,6.60,115.64,170313,,,A*6B
$GPGGA,103234.000,5058.4326,N,00505.7060,E,1,10,0.92,32.7,M,47.4,M,,*5A
$GPGSA,A,3,07,23,20,10,08,30,04,13,02,16,,,1.57,0.92,1.27*03
$GPGSV,3,1,11,13,80,070,42,04,58,241,39,23,53,065,48,10,52,291,48*7C
$GPGSV,3,2,11,02,37,301,38,07,31,169,43,20,21,114,35,30,13,047,42*7C
$GPGSV,3,3,11,16,09,074,39,08,06,182,24,05,01,291,*43
$GPRMC,103234.000,A,5058.4326,N,00505.7060,E,8.88,116.10,170313,,,A*6B
$GPGGA,103235.000,5058.4319,N,00505.7075,E,1,10,0.92,31.6,M,47.4,M,,*51
$GPGSA,A,3,07,23,20,10,08,30,04,13,02,16,,,1.57,0.92,1.27*03
$GPGSV,3,1,11,13,80,070,42,04,58,241,39,23,53,065,48,10,52,291,48*7C
$GPGSV,3,2,11,02,37,301,38,07,31,169,43,20,21,114,35,30,13,047,42*7C
$GPGSV,3,3,11,16,09,074,39,08,06,182,24,05,01,291,*43
$GPRMC,103235.000,A,5058.4319,N,00505.7075,E,5.73,116.92,170313,,,A*61
$GPGGA,103236.000,5058.4323,N,00505.7060,E,1,10,0.92,33.7,M,47.4,M,,*5C
$GPGSA,A,3,07,23,20,10,08,30,04,13,02,16,,,1.57,0.92,1.27*03
$GPGSV,3,1,11,13,80,070,42,04,58,241,39,23,53,065,48,10,52,291,48*7C
$GPGSV,3,2,11,02,37,301,38,07,31,169,43,20,21,114,35,30,13,047,42*7C
$GPGSV,3,3,11,16,09,074,39,08,06,182,24,05,01,291,*43
$GPRMC,103236.000,A,5058.4323,N,00505.7060,E,0.21,116.92,170313,,,A*6D
$GPGGA,103237.000,5058.4323,N,00505.7061,E,1,10,0.87,34.6,M,47.4,M,,*5E
$GPGSA,A,3,07,23,20,10,08,30,04,13,02,16,,,1.17,0.87,0.79*09
$GPGSV,3,1,11,13,80,070,41,04,58,241,38,23,53,065,48,10,52,291,47*71
$GPGSV,3,2,11,02,37,301,38,07,31,169,43,20,21,114,35,30,13,047,41*7F
$GPGSV,3,3,11,16,09,074,38,08,06,182,24,05,01,291,*42
$GPRMC,103237.000,A,5058.4323,N,00505.7061,E,0.17,116.92,170313,,,A*68
$GPGGA,103238.000,5058.4321,N,00505.7068,E,1,10,0.87,35.8,M,47.4,M,,*55
$GPGSA,A,3,07,23,20,10,08,30,04,13,02,16,,,1.17,0.87,0.79*09
$GPGSV,3,1,11,13,80,070,42,04,58,241,38,23,53,065,48,10,52,291,47*72
$GPGSV,3,2,11,02,37,301,38,07,31,169,43,20,21,114,36,30,13,047,41*7C
$GPGSV,3,3,11,16,09,074,38,08,06,182,24,05,01,291,*42
$GPRMC,103238.000,A,5058.4321,N,00505.7068,E,0.01,116.92,170313,,,A*6B
$GPGGA,103239.000,5058.4322,N,00505.7064,E,1,10,0.87,35.8,M,47.4,M,,*5B
$GPGSA,A,3,07,23,20,10,08,30,04,13,02,16,,,1.17,0.87,0.79*09
$GPGSV,3,1,11,13,80,070,42,04,58,241,38,23,53,065,48,10,52,291,47*72
$GPGSV,3,2,11,02,37,301,38,07,31,169,43,20,21,114,36,30,13,047,41*7C
$GPGSV,3,3,11,16,09,074,38,08,06,182,24,05,01,291,*42
$GPRMC,103239.000,A,5058.4322,N,00505.7064,E,0.89,332.11,170313,,,A*6A
$GPGGA,103240.000,5058.4322,N,00505.7061,E,1,10,0.87,35.8,M,47.4,M,,*50
$GPGSA,A,3,07,23,20,10,08,30,04,13,02,16,,,1.17,0.87,0.79*09
$GPGSV,3,1,11,13,80,070,42,04,58,241,38,23,53,065,48,10,52,291,47*72
$GPGSV,3,2,11,02,37,301,38,07,31,169,43,20,21,114,36,30,13,047,42*7F
$GPGSV,3,3,11,16,09,074,38,08,06,182,23,05,01,291,*45
$GPRMC,103240.000,A,5058.4322,N,00505.7061,E,1.28,104.72,170313,,,A*69
$GPGGA,103241.000,5058.4321,N,00505.7060,E,1,10,0.87,36.0,M,47.4,M,,*58
$GPGSA,A,3,07,23,20,10,08,30,04,13,02,16,,,1.17,0.87,0.79*09
$GPGSV,3,1,11,13,80,070,42,04,58,241,38,23,53,065,48,10,52,291,47*72
$GPGSV,3,2,11,02,37,301,38,07,31,169,43,20,21,114,36,30,13,047,42*7F
$GPGSV,3,3,11,16,09,074,38,08,06,182,23,05,01,291,*45
$GPRMC,103241.000,A,5058.4321,N,00505.7060,E,0.41,104.72,170313,,,A*64
$GPGGA,103242.000,5058.4320,N,00505.7058,E,1,10,0.87,36.0,M,47.4,M,,*51
$GPGSA,A,3,07,23,20,10,08,30,04,13,02,16,,,1.17,0.87,0.79*09
$GPGSV,3,1,11,13,80,070,42,04,58,241,38,23,53,065,48,10,52,291,47*72
$GPGSV,3,2,11,02,37,301,38,07,31,169,43,20,21,114,36,30,13,047,42*7F
$GPGSV,3,3,11,16,09,074,38,08,06,182,23,05,01,291,*45
$GPRMC,103242.000,A,5058.4320,N,00505.7058,E,0.46,104.72,170313,,,A*6A
$GPGGA,103243.000,5058.4321,N,00505.7048,E,1,10,0.87,35.8,M,47.4,M,,*5B
$GPGSA,A,3,07,23,20,10,08,30,04,13,02,16,,,1.17,0.87,0.79*09
$GPGSV,3,1,11,13,80,070,42,04,58,241,38,23,53,065,48,10,52,291,47*72
$GPGSV,3,2,11,02,37,301,38,07,31,169,43,20,21,114,36,30,13,047,42*7F
$GPGSV,3,3,11,16,09,074,38,08,06,182,22,05,01,291,*44
$GPRMC,103243.000,A,5058.4321,N,00505.7048,E,2.08,270.02,170313,,,A*64
$GPGGA,103244.000,5058.4323,N,00505.7034,E,1,10,0.87,35.5,M,47.4,M,,*58
$GPGSA,A,3,07,23,20,10,08,30,04,13,02,16,,,1.17,0.87,0.79*09
$GPGSV,3,1,11,13,80,070,41,04,58,241,37,23,53,065,48,10,52,291,46*7F
$GPGSV,3,2,11,02,37,301,38,07,31,169,43,20,21,114,36,30,13,047,42*7F
$GPGSV,3,3,11,16,09,074,38,08,06,182,21,05,01,291,*47
$GPRMC,103244.000,A,5058.4323,N,00505.7034,E,5.09,271.17,170313,,,A*69
$GPGGA,103245.000,5058.4323,N,00505.7019,E,1,10,0.92,35.4,M,47.4,M,,*53
$GPGSA,A,3,07,23,20,10,08,30,04,13,02,16,,,1.57,0.92,1.27*03
$GPGSV,3,1,11,13,80,070,41,04,58,241,37,23,53,065,48,10,52,291,46*7F
$GPGSV,3,2,11,02,37,301,38,07,31,169,43,20,21,114,36,30,13,047,42*7F
$GPGSV,3,3,11,16,09,074,38,08,06,182,21,05,01,291,*47
$GPRMC,103245.000,A,5058.4323,N,00505.7019,E,0.65,79.24,170313,,,A*52
$GPGGA,103246.000,5058.4322,N,00505.7026,E,1,10,0.87,35.6,M,47.4,M,,*5B
$GPGSA,A,3,07,23,20,10,08,30,04,13,02,16,,,1.17,0.87,0.79*09
$GPGSV,3,1,11,13,80,070,41,04,58,241,37,23,53,065,48,10,52,291,46*7F
$GPGSV,3,2,11,02,37,301,38,07,31,169,43,20,21,114,36,30,13,047,42*7F
$GPGSV,3,3,11,16,09,074,38,08,06,182,21,05,01,291,*47
$GPRMC,103246.000,A,5058.4322,N,00505.7026,E,2.89,80.75,170313,,,A*5E
$GPGGA,103247.000,5058.4322,N,00505.7031,E,1,10,0.87,35.9,M,47.4,M,,*53
$GPGSA,A,3,07,23,20,10,08,30,04,13,02,16,,,1.17,0.87,0.79*09
$GPGSV,3,1,11,13,80,070,41,04,58,241,37,23,53,065,48,10,52,291,46*7F
$GPGSV,3,2,11,02,37,301,38,07,31,169,43,20,21,114,36,30,13,047,42*7F
$GPGSV,3,3,11,16,09,074,38,08,06,182,21,05,01,291,*47
$GPRMC,103247.000,A,5058.4322,N,00505.7031,E,0.12,80.75,170313,,,A*59
$GPGGA,103248.000,5058.4323,N,00505.7028,E,1,10,0.87,35.8,M,47.4,M,,*54
$GPGSA,A,3,07,23,20,10,08,30,04,13,02,16,,,1.17,0.87,0.79*09
$GPGSV,3,1,11,13,80,070,41,04,57,240,38,23,53,065,48,10,52,291,46*7E
$GPGSV,3,2,11,02,37,301,38,07,31,169,43,20,21,114,36,30,13,047,42*7F
$GPGSV,3,3,11,16,09,074,39,08,06,182,21,05,01,291,*46
$GPRMC,103248.000,A,5058.4323,N,00505.7028,E,0.61,75.56,170313,,,A*50
$GPGGA,103249.000,5058.4323,N,00505.7027,E,1,10,0.87,36.0,M,47.4,M,,*51
$GPGSA,A,3,07,23,20,10,08,30,04,13,02,16,,,1.17,0.87,0.79*09
$GPGSV,3,1,11,13,80,070,42,04,57,240,38,23,53,065,48,10,52,291,46*7D
$GPGSV,3,2,11,02,37,301,38,07,31,169,43,20,21,114,37,30,13,047,42*7E
$GPGSV,3,3,11,16,09,074,39,08,06,182,22,05,01,291,*45
$GPRMC,103249.000,A,5058.4323,N,00505.7027,E,0.23,75.56,170313,,,A*58
$GPGGA,103250.000,5058.4323,N,00505.7027,E,1,10,0.87,35.9,M,47.4,M,,*53
$GPGSA,A,3,07,23,20,10,08,30,04,13,02,16,,,1.17,0.87,0.79*09
$GPGSV,3,1,11,13,80,070,42,04,57,240,38,23,53,065,48,10,52,291,46*7D
$GPGSV,3,2,11,02,37,301,38,07,31,169,43,20,21,114,37,30,13,047,42*7E
$GPGSV,3,3,11,16,09,074,39,08,06,182,23,05,01,291,*44
$GPRMC,103250.000,A,5058.4323,N,00505.7027,E,0.21,75.56,170313,,,A*52
$GPGGA,103251.000,5058.4321,N,00505.7031,E,1,10,0.87,35.8,M,47.4,M,,*56
$GPGSA,A,3,07,23,20,10,08,30,04,13,02,16,,,1.17,0.87,0.79*09
$GPGSV,3,1,11,13,80,070,42,04,57,240,38,23,53,065,48,10,52,291,46*7D
$GPGSV,3,2,11,02,37,301,38,07,31,169,43,20,21,114,37,30,13,047,42*7E
$GPGSV,3,3,11,16,09,074,39,08,06,182,23,05,01,291,*44
$GPRMC,103251.000,A,5058.4321,N,00505.7031,E,1.65,77.20,170313,,,A*54
$GPGGA,103252.000,5058.4322,N,00505.7037,E,1,10,0.87,36.0,M,47.4,M,,*5B
$GPGSA,A,3,07,23,20,10,08,30,04,13,02,16,,,1.17,0.87,0.79*09
$GPGSV,3,1,11,13,80,070,42,04,57,240,38,23,53,065,48,10,52,291,46*7D
$GPGSV,3,2,11,02,37,301,38,07,31,169,43,20,21,114,37,30,13,047,42*7E
$GPGSV,3,3,11,16,09,074,40,08,07,182,23,05,01,291,*4B
$GPRMC,103252.000,A,5058.4322,N,00505.7037,E,1.61,76.22,170313,,,A*55
$GPGGA,103253.000,5058.4324,N,00505.7039,E,1,10,0.87,35.9,M,47.4,M,,*58
$GPGSA,A,3,07,23,20,10,08,30,04,13,02,16,,,1.17,0.87,0.79*09
$GPGSV,3,1,11,13,80,070,42,04,57,240,38,23,53,065,48,10,52,291,46*7D
$GPGSV,3,2,11,02,37,301,39,07,31,169,43,20,21,114,37,30,13,047,42*7F
$GPGSV,3,3,11,16,09,074,40,08,07,182,23,05,01,291,*4B
$GPRMC,103253.000,A,5058.4324,N,00505.7039,E,0.09,76.22,170313,,,A*53
$GPGGA,103254.000,5058.4323,N,00505.7036,E,1,10,0.87,35.4,M,47.4,M,,*5A
$GPGSA,A,3,07,23,20,10,08,30,04,13,02,16,,,1.17,0.87,0.79*09
$GPGSV,3,1,11,13,80,070,42,04,57,240,38,23,53,065,48,10,53,291,46*7C
$GPGSV,3,2,11,02,37,301,39,07,31,169,43,20,21,114,38,30,13,047,42*70
$GPGSV,3,3,11,16,09,074,40,08,07,182,23,05,01,291,*4B
$GPRMC,103254.000,A,5058.4323,N,00505.7036,E,0.13,76.22,170313,,,A*57
$GPGGA,103255.000,5058.4324,N,00505.7039,E,1,10,0.87,35.7,M,47.4,M,,*50
$GPGSA,A,3,07,23,20,10,08,30,04,13,02,16,,,1.17,0.87,0.79*09
$GPGSV,3,1,11,13,80,070,42,04,57,240,38,23,53,065,48,10,53,291,46*7C
$GPGSV,3,2,11,02,37,301,39,07,31,169,43,20,21,114,38,30,13,047,42*70
$GPGSV,3,3,11,16,09,074,40,08,07,182,23,05,01,291,*4B
$GPRMC,103255.000,A,5058.4324,N,00505.7039,E,1.74,82.66,170313,,,A*55
$GPGGA,103256.000,5058.4324,N,00505.7043,E,1,10,0.87,35.8,M,47.4,M,,*51
$GPGSA,A,3,07,23,20,10,08,30,04,13,02,16,,,1.17,0.87,0.79*09
$GPGSV,3,1,11,13,80,070,42,04,57,240,38,23,53,065,48,10,53,291,46*7C
$GPGSV,3,2,11,02,37,301,39,07,31,169,43,20,21,114,38,30,13,047,42*70
$GPGSV,3,3,11,16,09,074,40,08,07,182,24,05,01,291,*4C
$GPRMC,103256.000,A,5058.4324,N,00505.7043,E,0.20,82.66,170313,,,A*5B
$GPGGA,103257.000,5058.4325,N,00505.7044,E,1,10,0.87,36.5,M,47.4,M,,*58
$GPGSA,A,3,07,23,20,10,08,30,04,13,02,16,,,1.17,0.87,0.79*09
$GPGSV,3,1,11,13,80,070,42,04,57,240,38,23,53,065,48,10,53,291,46*7C
$GPGSV,3,2,11,02,37,301,39,07,31,169,43,20,21,114,38,30,13,047,42*70
$GPGSV,3,3,11,16,09,074,40,08,07,182,24,05,01,291,*4C
$GPRMC,103257.000,A,5058.4325,N,00505.7044,E,0.01,82.66,170313,,,A*5F
$GPGGA,103258.000,5058.4325,N,00505.7043,E,1,10,0.87,36.5,M,47.4,M,,*50
$GPGSA,A,3,07,23,20,10,08,30,04,13,02,16,,,1.17,0.87,0.79*09
$GPGSV,3,1,11,13,80,070,42,04,57,240,38,23,53,065,48,10,53,291,46*7C
$GPGSV,3,2,11,02,37,301,39,07,31,169,43,20,21,114,38,30,13,047,42*70
$GPGSV,3,3,11,16,09,074,40,08,07,182,24,05,01,291,*4C
$GPRMC,103258.000,A,5058.4325,N,00505.7043,E,0.01,82.66,170313,,,A*57
$GPGGA,103259.000,5058.4325,N,00505.7042,E,1,10,0.87,36.6,M,47.4,M,,*53
$GPGSA,A,3,07,23,20,10,08,30,04,13,02,16,,,1.17,0.87,0.79*09
$GPGSV,3,1,11,13,80,070,42,04,57,240,38,23,53,065,48,10,53,291,46*7C
$GPGSV,3,2,11,02,37,301,39,07,31,169,43,20,21,114,38,30,13,047,42*70
$GPGSV,3,3,11,16,09,074,40,08,07,182,24,05,01,291,*4C
$GPRMC,103259.000,A,5058.4325,N,00505.7042,E,0.01,82.66,170313,,,A*57
$GPGGA,103300.000,5058.4325,N,00505.7042,E,1,10,0.92,36.6,M,47.4,M,,*5A
$GPGSA,A,3,07,23,20,10,08,30,04,13,02,16,,,1.57,0.92,1.28*0C
$GPGSV,3,1,11,13,80,070,42,04,57,240,38,23,53,065,48,10,53,291,46*7C
$GPGSV,3,2,11,02,37,301,39,07,31,169,43,20,21,114,38,30,13,047,42*70
$GPGSV,3,3,11,16,09,073,40,08,07,182,24,05,01,291,*4B
$GPRMC,103300.000,A,5058.4325,N,00505.7042,E,0.01,82.66,170313,,,A*5A
$GPGGA,103301.000,5058.4324,N,00505.7042,E,1,10,0.87,36.6,M,47.4,M,,*5E
$GPGSA,A,3,07,23,20,10,08,30,04,13,02,16,,,1.17,0.87,0.79*09
$GPGSV,3,1,11,13,80,070,42,04,57,240,38,23,53,065,48,10,53,291,46*7C
$GPGSV,3,2,11,02,37,301,39,07,31,169,43,20,21,114,38,30,13,047,42*70
$GPGSV,3,3,11,16,09,073,40,08,07,182,24,05,01,291,*4B
$GPRMC,103301.000,A,5058.4324,N,00505.7042,E,0.00,82.66,170313,,,A*5B
$GPGGA,103302.000,5058.4324,N,00505.7042,E,1,10,0.87,36.6,M,47.4,M,,*5D
$GPGSA,A,3,07,23,20,10,08,30,04,13,02,16,,,1.17,0.87,0.79*09
$GPGSV,3,1,11,13,80,070,42,04,57,240,38,23,53,065,48,10,53,291,46*7C
$GPGSV,3,2,11,02,37,301,39,07,31,169,43,20,21,114,38,30,13,047,42*70
$GPGSV,3,3,11,16,09,073,40,08,07,182,24,05,01,291,*4B
$GPRMC,103302.000,A,5058.4324,N,00505.7042,E,0.65,82.66,170313,,,A*5B
$GPGGA,103303.000,5058.4323,N,00505.7042,E,1,10,0.87,36.4,M,47.4,M,,*59
$GPGSA,A,3,07,23,20,10,08,30,04,13,02,16,,,1.17,0.87,0.79*09
$GPGSV,3,1,11,13,80,070,42,04,57,240,38,23,53,065,48,10,53,291,46*7C
$GPGSV,3,2,11,02,37,301,39,07,31,169,44,20,21,114,38,30,13,047,42*77
$GPGSV,3,3,11,16,09,073,40,08,07,182,24,05,01,291,*4B
$GPRMC,103303.000,A,5058.4323,N,00505.7042,E,0.41,82.66,170313,,,A*5B
$GPGGA,103304.000,5058.4321,N,00505.7046,E,1,10,0.87,36.3,M,47.4,M,,*5F
$GPGSA,A,3,07,23,20,10,08,30,04,13,02,16,,,1.17,0.87,0.79*09
$GPGSV,3,1,11,13,80,070,42,04,57,240,38,23,53,065,48,10,53,291,46*7C
$GPGSV,3,2,11,02,37,301,39,07,31,169,44,20,21,114,38,30,13,047,42*77
$GPGSV,3,3,11,16,09,073,40,08,07,182,24,05,01,291,*4B
$GPRMC,103304.000,A,5058.4321,N,00505.7046,E,1.75,84.80,170313,,,A*52
$GPGGA,103305.000,5058.4320,N,00505.7052,E,1,10,0.87,36.1,M,47.4,M,,*58
$GPGSA,A,3,07,23,20,10,08,30,04,13,02,16,,,1.17,0.87,0.79*09
$GPGSV,3,1,11,13,80,070,42,04,57,240,38,23,53,065,48,10,53,291,46*7C
$GPGSV,3,2,11,02,37,301,39,07,31,169,44,20,21,114,38,30,13,047,42*77
$GPGSV,3,3,11,16,09,073,40,08,07,182,24,05,01,291,*4B
$GPRMC,103305.000,A,5058.4320,N,00505.7052,E,1.59,86.21,170313,,,A*50
$GPGGA,103306.000,5058.4320,N,00505.7052,E,1,10,0.87,36.0,M,47.4,M,,*5A
$GPGSA,A,3,07,23,20,10,08,30,04,13,02,16,,,1.17,0.87,0.79*09
$GPGSV,3,1,11,13,80,070,42,04,57,240,38,23,53,065,48,10,53,291,46*7C
$GPGSV,3,2,11,02,37,301,39,07,31,169,44,20,21,114,38,30,13,047,42*77
$GPGSV,3,3,11,16,09,073,40,08,07,182,24,05,01,291,*4B
$GPRMC,103306.000,A,5058.4320,N,00505.7052,E,0.56,86.21,170313,,,A*5D
$GPGGA,103307.000,5058.4320,N,00505.7052,E,1,10,0.87,36.0,M,47.4,M,,*5B
$GPGSA,A,3,07,23,20,10,08,30,04,13,02,16,,,1.17,0.87,0.79*09
$GPGSV,3,1,11,13,80,070,42,04,57,240,38,23,53,065,48,10,53,291,46*7C
$GPGSV,3,2,11,02,37,301,39,07,31,169,44,20,21,114,37,30,13,047,42*78
$GPGSV,3,3,11,16,09,073,40,08,07,182,24,05,01,291,*4B
$GPRMC,103307.000,A,5058.4320,N,00505.7052,E,0.39,86.21,170313,,,A*55
$GPGGA,103308.000,5058.4319,N,00505.7049,E,1,10,0.87,36.0,M,47.4,M,,*54
$GPGSA,A,3,07,23,20,10,08,30,04,13,02,16,,,1.17,0.87,0.79*09
$GPGSV,3,1,11,13,80,070,42,04,57,240,38,23,53,065,48,10,53,291,46*7C
$GPGSV,3,2,11,02,37,301,39,07,31,169,44,20,21,114,37,30,13,047,42*78
$GPGSV,3,3,11,16,09,073,40,08,07,182,24,05,01,291,*4B
$GPRMC,103308.000,A,5058.4319,N,00505.7049,E,0.32,86.21,170313,,,A*51
$GPGGA,103309.000,5058.4320,N,00505.7048,E,1,10,0.87,36.0,M,47.4,M,,*5E
$GPGSA,A,3,07,23,20,10,08,30,04,13,02,16,,,1.17,0.87,0.79*09
$GPGSV,3,1,11,13,80,070,42,04,57,240,38,23,53,065,48,10,53,291,46*7C
$GPGSV,3,2,11,02,37,301,39,07,31,169,44,20,21,114,37,30,13,047,42*78
$GPGSV,3,3,11,16,09,073,40,08,07,182,24,05,01,291,*4B
$GPRMC,103309.000,A,5058.4320,N,00505.7048,E,0.49,86.47,170313,,,A*57
$GPGGA,103310.000,5058.4320,N,00505.7046,E,1,10,0.87,35.9,M,47.4,M,,*52
$GPGSA,A,3,07,23,20,10,08,30,04,13,02,16,,,1.17,0.87,0.79*09
$GPGSV,3,1,11,13,80,070,42,04,57,240,38,23,53,065,48,10,53,291,46*7C
$GPGSV,3,2,11,02,37,301,39,07,31,169,44,20,21,114,37,30,13,047,42*78
$GPGSV,3,3,11,16,09,073,40,08,07,182,24,05,01,291,*4B
$GPRMC,103310.000,A,5058.4320,N,00505.7046,E,0.97,48.01,170313,,,A*52
$GPGGA,103311.000,5058.4320,N,00505.7049,E,1,10,0.87,37.0,M,47.4,M,,*57
$GPGSA,A,3,07,23,20,10,08,30,04,13,02,16,,,1.17,0.87,0.79*09
$GPGSV,3,1,11,13,80,070,42,04,57,240,38,23,53,065,48,10,53,291,46*7C
$GPGSV,3,2,11,02,37,301,39,07,31,169,44,20,21,114,37,30,13,047,42*78
$GPGSV,3,3,11,16,09,073,40,08,07,182,24,05,01,291,*4B
$GPRMC,103311.000,A,5058.4320,N,00505.7049,E,0.97,82.31,170313,,,A*59
$GPGGA,103312.000,5058.4320,N,00505.7051,E,1,10,0.87,37.5,M,47.4,M,,*58
$GPGSA,A,3,07,23,20,10,08,30,04,13,02,16,,,1.17,0.87,0.79*09
$GPGSV,3,1,11,13,80,070,42,04,57,240,38,23,53,065,48,10,53,291,46*7C
$GPGSV,3,2,11,02,37,301,39,07,31,169,44,20,21,114,37,30,13,047,42*78
$GPGSV,3,3,11,16,09,073,40,08,07,182,25,05,01,291,*4A
$GPRMC,103312.000,A,5058.4320,N,00505.7051,E,0.79,66.91,170313,,,A*53
$GPGGA,103313.000,5058.4321,N,00505.7052,E,1,10,0.87,37.8,M,47.4,M,,*56
$GPGSA,A,3,07,23,20,10,08,30,04,13,02,16,,,1.17,0.87,0.79*09
$GPGSV,3,1,11,13,80,070,42,04,57,240,38,23,53,065,48,10,53,291,46*7C
$GPGSV,3,2,11,02,37,301,40,07,31,169,44,20,21,114,37,30,13,047,42*76
$GPGSV,3,3,11,16,09,073,40,08,07,182,25,05,01,291,*4A
$GPRMC,103313.000,A,5058.4321,N,00505.7052,E,0.73,62.79,170313,,,A*58
$GPGGA,103314.000,5058.4321,N,00505.7048,E,1,10,0.87,36.5,M,47.4,M,,*56
$GPGSA,A,3,07,23,20,10,08,30,04,13,02,16,,,1.17,0.87,0.79*09
$GPGSV,3,1,11,13,80,070,42,04,57,240,38,23,53,065,48,10,53,291,46*7C
$GPGSV,3,2,11,02,37,301,40,07,31,169,44,20,21,114,37,30,13,047,42*76
$GPGSV,3,3,11,16,09,073,40,08,07,182,25,05,01,291,*4A
$GPRMC,103314.000,A,5058.4321,N,00505.7048,E,0.04,62.79,170313,,,A*54
$GPGGA,103315.000,5058.4321,N,00505.7047,E,1,10,0.87,36.5,M,47.4,M,,*58
$GPGSA,A,3,07,23,20,10,08,30,04,13,02,16,,,1.17,0.87,0.79*09
$GPGSV,3,1,11,13,80,070,42,04,57,240,38,23,53,065,48,10,53,291,46*7C
$GPGSV,3,2,11,02,37,301,40,07,31,169,44,20,21,114,37,30,13,047,42*76
$GPGSV,3,3,11,16,09,073,40,08,07,182,25,05,01,291,*4A
$GPRMC,103315.000,A,5058.4321,N,00505.7047,E,0.03,62.79,170313,,,A*5D
$GPGGA,103316.000,5058.4321,N,00505.7047,E,1,10,0.87,36.4,M,47.4,M,,*5A
$GPGSA,A,3,07,23,20,10,08,30,04,13,02,16,,,1.17,0.87,0.79*09
$GPGSV,3,1,11,13,80,070,42,04,57,240,38,23,53,065,48,10,53,291,46*7C
$GPGSV,3,2,11,02,37,301,40,07,31,169,44,20,21,114,37,30,13,047,42*76
$GPGSV,3,3,11,16,09,073,40,08,07,182,24,05,01,291,*4B
$GPRMC,103316.000,A,5058.4321,N,00505.7047,E,0.03,62.79,170313,,,A*5E
$GPGGA,103317.000,5058.4321,N,00505.7046,E,1,10,0.87,36.5,M,47.4,M,,*5B
$GPGSA,A,3,07,23,20,10,08,30,04,13,02,16,,,1.17,0.87,0.79*09
$GPGSV,3,1,11,13,80,070,42,04,57,240,38,23,53,065,48,10,53,291,46*7C
$GPGSV,3,2,11,02,37,301,40,07,31,169,44,20,21,114,37,30,13,047,42*76
$GPGSV,3,3,11,16,09,073,40,08,07,182,24,05,01,291,*4B
$GPRMC,103317.000,A,5058.4321,N,00505.7046,E,0.01,62.79,170313,,,A*5C
$GPGGA,103318.000,5058.4321,N,00505.7046,E,1,10,0.87,36.5,M,47.4,M,,*54
$GPGSA,A,3,07,23,20,10,08,30,04,13,02,16,,,1.17,0.87,0.79*09
$GPGSV,3,1,11,13,80,070,42,04,57,240,38,23,53,065,48,10,53,291,46*7C
$GPGSV,3,2,11,02,38,301,40,07,31,169,44,20,21,114,37,30,13,047,42*79
$GPGSV,3,3,11,16,09,073,40,08,07,182,24,05,01,291,*4B
$GPRMC,103318.000,A,5058.4321,N,00505.7046,E,0.01,62.79,170313,,,A*53
$GPGGA,103319.000,5058.4321,N,00505.7046,E,1,10,0.87,36.5,M,47.4,M,,*55
$GPGSA,A,3,07,23,20,10,08,30,04,13,02,16,,,1.17,0.87,0.79*09
$GPGSV,3,1,11,13,80,070,42,04,57,240,38,23,53,065,48,10,53,291,46*7C
$GPGSV,3,2,11,02,38,301,40,07,31,169,44,20,21,114,37,30,13,047,42*79
$GPGSV,3,3,11,16,09,073,40,08,07,182,23,05,01,291,*4C
$GPRMC,103319.000,A,5058.4321,N,00505.7046,E,0.11,62.79,170313,,,A*53
$GPGGA,103320.000,5058.4321,N,00505.7046,E,1,10,0.87,36.5,M,47.4,M,,*5F
$GPGSA,A,3,07,23,20,10,08,30,04,13,02,16,,,1.17,0.87,0.79*09
$GPGSV,3,1,11,13,80,070,42,04,57,240,38,23,53,065,48,10,53,291,46*7C
$GPGSV,3,2,11,02,38,301,39,07,31,169,44,20,21,114,37,30,13,047,42*77
$GPGSV,3,3,11,16,09,073,40,08,07,182,23,05,01,291,*4C
$GPRMC,103320.000,A,5058.4321,N,00505.7046,E,0.18,62.79,170313,,,A*50
$GPGGA,103321.000,5058.4321,N,00505.7047,E,1,10,0.87,36.5,M,47.4,M,,*5F
$GPGSA,A,3,07,23,20,10,08,30,04,13,02,16,,,1.17,0.87,0.79*09
$GPGSV,3,1,11,13,80,070,42,04,57,240,37,23,53,065,48,10,53,291,46*73
$GPGSV,3,2,11,02,38,301,39,07,31,169,44,20,21,114,37,30,13,047,42*77
$GPGSV,3,3,11,16,09,073,40,08,07,182,23,05,02,291,*4F
$GPRMC,103321.000,A,5058.4321,N,00505.7047,E,1.99,280.11,170313,,,A*68
$GPGGA,103322.000,5058.4323,N,00505.7037,E,1,10,0.87,36.4,M,47.4,M,,*58
$GPGSA,A,3,07,23,20,10,08,30,04,13,02,16,,,1.17,0.87,0.79*09
$GPGSV,3,1,11,13,80,070,42,04,57,240,37,23,53,065,48,10,53,291,46*73
$GPGSV,3,2,11,02,38,301,39,07,31,169,44,20,21,114,37,30,13,047,42*77
$GPGSV,3,3,11,16,09,073,40,08,07,182,23,05,02,291,*4F
$GPRMC,103322.000,A,5058.4323,N,00505.7037,E,3.11,284.94,170313,,,A*65
$GPGGA,103323.000,5058.4322,N,00505.7037,E,1,10,0.87,36.4,M,47.4,M,,*58
$GPGSA,A,3,07,23,20,10,08,30,04,13,02,16,,,1.17,0.87,0.79*09
$GPGSV,3,1,11,13,80,070,42,04,57,240,37,23,53,065,48,10,53,291,46*73
$GPGSV,3,2,11,02,38,301,39,07,32,169,44,20,21,114,36,30,13,047,42*75
$GPGSV,3,3,11,16,09,073,40,08,07,182,23,05,02,291,*4F
$GPRMC,103323.000,A,5058.4322,N,00505.7037,E,3.50,105.64,170313,,,A*65
$GPGGA,103324.000,5058.4320,N,00505.7045,E,1,10,0.87,36.5,M,47.4,M,,*59
$GPGSA,A,3,07,23,20,10,08,30,04,13,02,16,,,1.17,0.87,0.79*09
$GPGSV,3,1,11,13,80,070,42,04,57,240,37,23,53,065,48,10,53,291,46*73
$GPGSV,3,2,11,02,38,301,39,07,32,169,44,20,21,114,36,30,13,047,42*75
$GPGSV,3,3,11,16,09,073,40,08,07,182,23,05,02,291,*4F
$GPRMC,103324.000,A,5058.4320,N,00505.7045,E,0.63,122.19,170313,,,A*69
$GPGGA,103325.000,5058.4322,N,00505.7037,E,1,10,0.87,36.8,M,47.4,M,,*52
$GPGSA,A,3,07,23,20,10,08,30,04,13,02,16,,,1.17,0.87,0.79*09
$GPGSV,3,1,11,13,80,070,42,04,57,240,37,23,53,065,48,10,53,291,46*73
$GPGSV,3,2,11,02,38,301,39,07,32,169,44,20,21,114,36,30,13,047,42*75
$GPGSV,3,3,11,16,09,073,40,08,07,182,23,05,02,291,*4F
$GPRMC,103325.000,A,5058.4322,N,00505.7037,E,0.27,122.19,170313,,,A*6F
$GPGGA,103326.000,5058.4321,N,00505.7040,E,1,10,0.87,36.8,M,47.4,M,,*52
$GPGSA,A,3,07,23,20,10,08,30,04,13,02,16,,,1.17,0.87,0.79*09
$GPGSV,3,1,11,13,80,070,42,04,57,240,37,23,53,065,48,10,53,291,46*73
$GPGSV,3,2,11,02,38,301,39,07,32,169,44,20,21,114,36,30,13,047,42*75
$GPGSV,3,3,11,16,09,073,40,08,07,182,23,05,02,291,*4F
$GPRMC,103326.000,A,5058.4321,N,00505.7040,E,0.46,122.19,170313,,,A*68
$GPGGA,103327.000,5058.4321,N,00505.7038,E,1,10,0.87,36.9,M,47.4,M,,*5D
$GPGSA,A,3,07,23,20,10,08,30,04,13,02,16,,,1.17,0.87,0.79*09
$GPGSV,3,1,11,13,80,070,42,04,57,240,37,23,53,065,48,10,53,291,46*73
$GPGSV,3,2,11,02,38,301,39,07,32,169,44,20,21,114,36,30,13,047,42*75
$GPGSV,3,3,11,16,09,073,40,08,07,182,22,05,02,291,*4E
$GPRMC,103327.000,A,5058.4321,N,00505.7038,E,0.77,75.22,170313,,,A*5F
$GPGGA,103328.000,5058.4320,N,00505.7041,E,1,10,0.87,37.1,M,47.4,M,,*54
$GPGSA,A,3,07,23,20,10,08,30,04,13,02,16,,,1.17,0.87,0.79*09
$GPGSV,3,1,11,13,80,070,42,04,57,240,37,23,53,065,48,10,53,291,46*73
$GPGSV,3,2,11,02,38,301,39,07,32,169,44,20,21,114,36,30,13,047,42*75
$GPGSV,3,3,11,16,09,073,40,08,07,182,22,05,02,291,*4E
$GPRMC,103328.000,A,5058.4320,N,00505.7041,E,0.27,75.22,170313,,,A*5A
$GPGGA,103329.000,5058.4318,N,00505.7047,E,1,10,0.87,37.2,M,47.4,M,,*5B
$GPGSA,A,3,07,23,20,10,08,30,04,13,02,16,,,1.17,0.87,0.79*09
$GPGSV,3,1,11,13,80,069,42,04,57,240,37,23,53,065,48,10,53,291,46*7B
$GPGSV,3,2,11,02,38,301,39,07,32,169,44,20,21,114,36,30,13,047,42*75
$GPGSV,3,3,11,16,09,073,40,08,07,182,22,05,02,291,*4E
$GPRMC,103329.000,A,5058.4318,N,00505.7047,E,1.79,77.59,170313,,,A*52
$GPGGA,103330.000,5058.4317,N,00505.7053,E,1,10,0.87,37.4,M,47.4,M,,*5F
$GPGSA,A,3,07,23,20,10,08,30,04,13,02,16,,,1.17,0.87,0.79*09
$GPGSV,3,1,11,13,80,069,42,04,57,240,36,23,53,065,48,10,53,291,46*7A
$GPGSV,3,2,11,02,38,301,39,07,32,169,44,20,21,114,36,30,13,047,42*75
$GPGSV,3,3,11,16,09,073,41,08,07,182,22,05,02,291,*4F
$GPRMC,103330.000,A,5058.4317,N,00505.7053,E,2.71,79.75,170313,,,A*5B
$GPGGA,103331.000,5058.4317,N,00505.7055,E,1,10,0.87,37.7,M,47.4,M,,*5B
$GPGSA,A,3,07,23,20,10,08,30,04,13,02,16,,,1.17,0.87,0.79*09
$GPGSV,3,1,11,13,80,069,42,04,57,240,36,23,53,065,48,10,53,291,46*7A
$GPGSV,3,2,11,02,38,301,39,07,32,169,44,20,21,114,36,30,13,047,42*75
$GPGSV,3,3,11,16,09,073,41,08,07,182,22,05,02,291,*4F
$GPRMC,103331.000,A,5058.4317,N,00505.7055,E,2.94,282.26,170313,,,A*67
$GPGGA,103332.000,5058.4319,N,00505.7039,E,1,10,0.87,37.9,M,47.4,M,,*52
$GPGSA,A,3,07,23,20,10,08,30,04,13,02,16,,,1.17,0.87,0.79*09
$GPGSV,3,1,11,13,80,069,42,04,57,240,36,23,53,065,48,10,53,291,46*7A
$GPGSV,3,2,11,02,38,301,39,07,32,169,44,20,21,114,36,30,13,047,42*75
$GPGSV,3,3,11,16,09,073,41,08,07,182,22,05,02,291,*4F
$GPRMC,103332.000,A,5058.4319,N,00505.7039,E,4.94,285.57,170313,,,A*67
$GPGGA,103333.000,5058.4319,N,00505.7029,E,1,10,0.92,38.0,M,47.4,M,,*50
$GPGSA,A,3,07,23,20,10,08,30,04,13,02,16,,,1.58,0.92,1.28*03
$GPGSV,3,1,11,13,80,069,42,04,57,240,36,23,53,065,48,10,53,291,46*7A
$GPGSV,3,2,11,02,38,301,39,07,32,169,44,20,21,114,35,30,13,047,42*76
$GPGSV,3,3,11,16,09,073,41,08,07,182,22,05,02,291,*4F
$GPRMC,103333.000,A,5058.4319,N,00505.7029,E,1.24,253.02,170313,,,A*62
$GPGGA,103334.000,5058.4318,N,00505.7028,E,1,10,0.87,38.2,M,47.4,M,,*51
$GPGSA,A,3,07,23,20,10,08,30,04,13,02,16,,,1.17,0.87,0.79*09
$GPGSV,3,1,11,13,80,069,42,04,57,240,36,23,53,065,48,10,53,291,46*7A
$GPGSV,3,2,11,02,38,301,39,07,32,169,44,20,21,114,35,30,13,047,42*76
$GPGSV,3,3,11,16,09,073,41,08,07,182,22,05,02,291,*4F
$GPRMC,103334.000,A,5058.4318,N,00505.7028,E,0.12,253.02,170313,,,A*61
$GPGGA,103335.000,5058.4318,N,00505.7024,E,1,10,0.87,38.2,M,47.4,M,,*5C
$GPGSA,A,3,07,23,20,10,08,30,04,13,02,16,,,1.17,0.87,0.79*09
$GPGSV,3,1,11,13,80,069,42,04,57,240,36,23,53,065,48,10,53,291,46*7A
$GPGSV,3,2,11,02,38,301,39,07,32,169,44,20,21,114,35,30,13,047,42*76
$GPGSV,3,3,11,16,09,073,41,08,07,182,23,05,02,291,*4E
$GPRMC,103335.000,A,5058.4318,N,00505.7024,E,0.50,253.02,170313,,,A*6A
$GPGGA,103336.000,5058.4320,N,00505.7021,E,1,10,0.87,38.3,M,47.4,M,,*50
$GPGSA,A,3,07,23,20,10,08,30,04,13,02,16,,,1.17,0.87,0.79*09
$GPGSV,3,1,11,13,80,069,42,04,57,240,36,23,53,065,48,10,53,291,46*7A
$GPGSV,3,2,11,02,38,301,39,07,32,169,44,20,21,114,35,30,13,047,42*76
$GPGSV,3,3,11,16,09,073,41,08,07,182,24,05,02,291,*49
$GPRMC,103336.000,A,5058.4320,N,00505.7021,E,1.86,255.03,170313,,,A*6A
$GPGGA,103337.000,5058.4320,N,00505.7020,E,1,10,0.87,38.4,M,47.4,M,,*57
$GPGSA,A,3,07,23,20,10,08,30,04,13,02,16,,,1.17,0.87,0.79*09
$GPGSV,3,1,11,13,80,069,41,04,57,240,35,23,53,065,48,10,53,291,46*7A
$GPGSV,3,2,11,02,38,301,39,07,32,169,44,20,21,114,35,30,13,047,42*76
$GPGSV,3,3,11,16,09,073,41,08,07,182,24,05,02,291,*49
$GPRMC,103337.000,A,5058.4320,N,00505.7020,E,0.47,255.03,170313,,,A*66
$GPGGA,103338.000,5058.4319,N,00505.7021,E,1,10,0.87,38.5,M,47.4,M,,*52
$GPGSA,A,3,07,23,20,10,08,30,04,13,02,16,,,1.17,0.87,0.79*09
$GPGSV,3,1,11,13,80,069,41,04,57,240,34,23,53,065,48,10,53,291,46*7B
$GPGSV,3,2,11,02,38,301,39,07,32,169,44,20,21,114,35,30,13,047,42*76
$GPGSV,3,3,11,16,09,073,41,08,07,182,25,05,02,291,*48
$GPRMC,103338.000,A,5058.4319,N,00505.7021,E,0.06,255.03,170313,,,A*67
$GPGGA,103339.000,5058.4319,N,00505.7020,E,1,10,0.87,38.5,M,47.4,M,,*52
$GPGSA,A,3,07,23,20,10,08,30,04,13,02,16,,,1.17,0.87,0.79*09
$GPGSV,3,1,11,13,80,069,41,04,57,240,34,10,53,291,46,23,52,065,48*7A
$GPGSV,3,2,11,02,38,301,39,07,32,169,43,20,21,114,35,30,13,047,42*71
$GPGSV,3,3,11,16,09,073,41,08,07,182,25,05,02,291,*48
$GPRMC,103339.000,A,5058.4319,N,00505.7020,E,0.66,251.92,170313,,,A*6D
$GPGGA,103340.000,5058.4315,N,00505.7015,E,1,10,0.87,38.7,M,47.4,M,,*54
$GPGSA,A,3,07,23,20,10,08,30,04,13,02,16,,,1.17,0.87,0.79*09
$GPGSV,3,1,11,13,80,069,41,04,57,240,34,10,53,291,46,23,52,065,48*7A
$GPGSV,3,2,11,02,38,301,39,07,32,169,43,20,21,114,35,30,13,047,42*71
$GPGSV,3,3,11,16,09,073,41,08,07,182,25,05,02,291,*48
$GPRMC,103340.000,A,5058.4315,N,00505.7015,E,2.44,249.57,170313,,,A*6B
$GPGGA,103341.000,5058.4317,N,00505.6995,E,1,10,0.87,38.6,M,47.4,M,,*56
$GPGSA,A,3,07,23,20,10,08,30,04,13,02,16,,,1.17,0.87,0.79*09
$GPGSV,3,1,11,13,80,069,41,04,57,240,34,10,53,291,46,23,52,065,48*7A
$GPGSV,3,2,11,02,38,301,39,07,32,169,42,20,21,114,35,30,13,047,42*70
$GPGSV,3,3,11,16,09,073,41,08,07,182,25,05,02,291,*48
$GPRMC,103341.000,A,5058.4317,N,00505.6995,E,9.04,252.97,170313,,,A*61
$GPGGA,103342.000,5058.4318,N,00505.6974,E,1,10,0.92,37.9,M,47.4,M,,*51
$GPGSA,A,3,07,23,20,10,08,30,04,13,02,16,,,1.58,0.92,1.28*03
$GPGSV,3,1,11,13,80,069,41,04,57,240,34,10,53,291,46,23,52,065,48*7A
$GPGSV,3,2,11,02,38,301,39,07,32,169,42,20,21,114,35,30,13,047,42*70
$GPGSV,3,3,11,16,09,073,41,08,07,182,25,05,02,291,*48
$GPRMC,103342.000,A,5058.4318,N,00505.6974,E,6.33,256.94,170313,,,A*6E
$GPGGA,103343.000,5058.4319,N,00505.6960,E,1,10,0.92,37.9,M,47.4,M,,*54
$GPGSA,A,3,07,23,20,10,08,30,04,13,02,16,,,1.58,0.92,1.28*03
$GPGSV,3,1,11,13,80,069,41,04,57,240,35,10,53,291,46,23,52,065,48*7B
$GPGSV,3,2,11,02,38,301,39,07,32,169,42,20,21,114,35,30,13,047,42*70
$GPGSV,3,3,11,16,09,073,41,08,07,182,26,05,02,291,*4B
$GPRMC,103343.000,A,5058.4319,N,00505.6960,E,0.92,8.30,170313,,,A*61
$GPGGA,103344.000,5058.4319,N,00505.6966,E,1,10,0.87,37.7,M,47.4,M,,*5F
$GPGSA,A,3,07,23,20,10,08,30,04,13,02,16,,,1.17,0.87,0.79*09
$GPGSV,3,1,11,13,80,069,41,04,57,240,35,10,53,291,46,23,52,065,48*7B
$GPGSV,3,2,11,02,38,301,39,07,32,169,42,20,21,114,35,30,13,047,42*70
$GPGSV,3,3,11,16,09,073,41,08,07,182,26,05,02,291,*4B
$GPRMC,103344.000,A,5058.4319,N,00505.6966,E,1.99,283.96,170313,,,A*67
$GPGGA,103345.000,5058.4318,N,00505.6973,E,1,10,0.87,37.7,M,47.4,M,,*5B
$GPGSA,A,3,07,23,20,10,08,30,04,13,02,16,,,1.17,0.87,0.79*09
$GPGSV,3,1,11,13,80,069,41,04,57,240,35,10,53,291,46,23,52,065,48*7B
$GPGSV,3,2,11,02,38,301,39,07,32,169,42,20,21,114,35,30,13,047,42*70
$GPGSV,3,3,11,16,09,073,41,08,07,182,26,05,02,291,*4B
$GPRMC,103345.000,A,5058.4318,N,00505.6973,E,3.39,75.52,170313,,,A*58
$GPGGA,103346.000,5058.4319,N,00505.6983,E,1,10,0.87,38.0,M,47.4,M,,*5E
$GPGSA,A,3,07,23,20,10,08,30,04,13,02,16,,,1.17,0.87,0.79*09
$GPGSV,3,1,11,13,80,069,41,04,57,240,35,10,53,291,46,23,52,065,48*7B
$GPGSV,3,2,11,02,38,301,39,07,32,169,42,20,21,114,35,30,13,047,42*70
$GPGSV,3,3,11,16,09,073,41,08,07,182,26,05,02,291,*4B
$GPRMC,103346.000,A,5058.4319,N,00505.6983,E,0.52,75.52,170313,,,A*5B
$GPGGA,103347.000,5058.4318,N,00505.6987,E,1,10,0.87,37.8,M,47.4,M,,*5D
$GPGSA,A,3,07,23,20,10,08,30,04,13,02,16,,,1.17,0.87,0.79*09
$GPGSV,3,1,11,13,80,069,42,04,57,240,35,10,53,291,46,23,52,065,48*78
$GPGSV,3,2,11,02,38,301,39,07,32,169,42,20,21,114,35,30,13,047,42*70
$GPGSV,3,3,11,16,09,073,41,08,07,182,26,05,02,291,*4B
$GPRMC,103347.000,A,5058.4318,N,00505.6987,E,0.15,75.52,170313,,,A*5C
$GPGGA,103348.000,5058.4318,N,00505.6993,E,1,10,0.87,37.9,M,47.4,M,,*56
$GPGSA,A,3,07,23,20,10,08,30,04,13,02,16,,,1.17,0.87,0.79*09
$GPGSV,3,1,11,13,80,069,42,04,57,240,35,10,53,291,46,23,52,065,48*78
$GPGSV,3,2,11,02,38,301,39,07,32,169,42,20,21,114,35,30,13,047,42*70
$GPGSV,3,3,11,16,09,073,41,08,07,182,26,05,02,291,*4B
$GPRMC,103348.000,A,5058.4318,N,00505.6993,E,0.49,75.52,170313,,,A*5F
$GPGGA,103349.000,5058.4318,N,00505.6996,E,1,10,0.87,37.9,M,47.4,M,,*52
$GPGSA,A,3,07,23,20,10,08,30,04,13,02,16,,,1.17,0.87,0.79*09
$GPGSV,3,1,11,13,80,069,42,04,57,240,35,10,53,291,46,23,52,065,48*78
$GPGSV,3,2,11,02,38,301,39,07,32,169,42,20,21,114,35,30,13,047,42*70
$GPGSV,3,3,11,16,09,073,41,08,07,182,26,05,02,291,*4B
$GPRMC,103349.000,A,5058.4318,N,00505.6996,E,0.10,75.52,170313,,,A*57
$GPGGA,103350.000,5058.4318,N,00505.6996,E,1,10,0.87,38.0,M,47.4,M,,*5C
$GPGSA,A,3,07,23,20,10,08,30,04,13,02,16,,,1.17,0.87,0.79*09
$GPGSV,3,1,11,13,80,069,42,04,57,240,35,10,53,291,46,23,52,065,48*78
$GPGSV,3,2,11,02,38,300,39,07,32,169,42,20,21,114,36,30,13,047,42*72
$GPGSV,3,3,11,16,09,073,41,08,07,182,26,05,02,291,*4B
$GPRMC,103350.000,A,5058.4318,N,00505.6996,E,0.44,75.52,170313,,,A*5E
$GPGGA,103351.000,5058.4318,N,00505.6997,E,1,10,0.87,38.0,M,47.4,M,,*5C
$GPGSA,A,3,07,23,20,10,08,30,04,13,02,16,,,1.17,0.87,0.79*09
$GPGSV,3,1,11,13,80,069,42,04,57,240,35,10,53,291,46,23,52,065,48*78
$GPGSV,3,2,11,02,38,300,39,07,32,169,42,20,21,114,36,30,13,047,42*72
$GPGSV,3,3,11,16,09,073,41,08,07,182,26,05,02,291,*4B
$GPRMC,103351.000,A,5058.4318,N,00505.6997,E,0.24,75.52,170313,,,A*58
$GPGGA,103352.000,5058.4319,N,00505.6998,E,1,10,0.87,38.1,M,47.4,M,,*50
$GPGSA,A,3,07,23,20,10,08,30,04,13,02,16,,,1.17,0.87,0.79*09
$GPGSV,3,1,11,13,80,069,42,04,57,240,35,10,53,291,46,23,52,065,48*78
$GPGSV,3,2,11,02,38,300,39,07,32,169,42,20,21,114,36,30,13,047,42*72
$GPGSV,3,3,11,16,09,073,41,08,07,182,26,05,02,291,*4B
$GPRMC,103352.000,A,5058.4319,N,00505.6998,E,0.36,75.52,170313,,,A*56
$GPGGA,103353.000,5058.4319,N,00505.7000,E,1,10,0.87,38.2,M,47.4,M,,*5B
$GPGSA,A,3,07,23,20,10,08,30,04,13,02,16,,,1.17,0.87,0.79*09
$GPGSV,3,1,11,13,80,069,42,04,57,240,35,10,53,291,46,23,52,065,48*78
$GPGSV,3,2,11,02,38,300,39,07,32,169,42,20,21,114,36,30,13,047,42*72
$GPGSV,3,3,11,16,09,073,41,08,07,182,26,05,02,291,*4B
$GPRMC,103353.000,A,5058.4319,N,00505.7000,E,0.45,75.52,170313,,,A*5A
$GPGGA,103354.000,5058.4319,N,00505.6998,E,1,10,0.87,38.2,M,47.4,M,,*55
$GPGSA,A,3,07,23,20,10,08,30,04,13,02,16,,,1.17,0.87,0.79*09
$GPGSV,3,1,11,13,80,069,42,04,57,240,35,10,53,291,46,23,52,065,48*78
$GPGSV,3,2,11,02,38,300,39,07,32,169,42,20,21,114,37,30,13,047,42*73
$GPGSV,3,3,11,16,09,073,41,08,07,182,26,05,02,291,*4B
$GPRMC,103354.000,A,5058.4319,N,00505.6998,E,0.35,75.52,170313,,,A*53
$GPGGA,103355.000,5058.4318,N,00505.6997,E,1,10,0.87,38.2,M,47.4,M,,*5A
$GPGSA,A,3,07,23,20,10,08,30,04,13,02,16,,,1.17,0.87,0.79*09
$GPGSV,3,1,11,13,80,069,42,04,57,240,34,10,53,291,46,23,52,065,48*79
$GPGSV,3,2,11,02,38,300,39,07,32,169,42,20,21,114,37,30,13,047,42*73
$GPGSV,3,3,11,16,09,073,41,08,07,182,26,05,02,291,*4B
$GPRMC,103355.000,A,5058.4318,N,00505.6997,E,0.13,75.52,170313,,,A*58
$GPGGA,103356.000,5058.4318,N,00505.6998,E,1,10,0.87,38.2,M,47.4,M,,*56
$GPGSA,A,3,07,23,20,10,08,30,04,13,02,16,,,1.17,0.87,0.79*09
$GPGSV,3,1,11,13,80,069,42,04,57,240,34,10,53,291,46,23,52,065,48*79
$GPGSV,3,2,11,02,38,300,39,07,32,169,42,20,21,114,37,30,13,047,42*73
$GPGSV,3,3,11,16,09,073,41,08,07,182,26,05,02,291,*4B
$GPRMC,103356.000,A,5058.4318,N,00505.6998,E,0.18,75.52,170313,,,A*5F
$GPGGA,103357.000,5058.4318,N,00505.6998,E,1,10,0.87,38.3,M,47.4,M,,*56
$GPGSA,A,3,07,23,20,10,08,30,04,13,02,16,,,1.17,0.87,0.79*09
$GPGSV,3,1,11,13,80,069,42,04,57,240,34,10,53,291,46,23,52,065,48*79
$GPGSV,3,2,11,02,38,300,39,07,32,169,42,20,21,114,37,30,13,047,42*73
$GPGSV,3,3,11,16,09,073,41,08,07,182,26,05,02,291,*4B
$GPRMC,103357.000,A,5058.4318,N,00505.6998,E,0.02,75.52,170313,,,A*55
$GPGGA,103358.000,5058.4319,N,00505.6998,E,1,10,0.87,38.3,M,47.4,M,,*58
$GPGSA,A,3,07,23,20,10,08,30,04,13,02,16,,,1.17,0.87,0.79*09
$GPGSV,3,1,11,13,80,069,42,04,57,240,33,10,53,291,45,23,52,065,48*7D
$GPGSV,3,2,11,02,38,300,39,07,32,169,42,20,21,114,37,30,13,047,42*73
$GPGSV,3,3,11,16,09,073,41,08,07,182,26,05,02,291,*4B
$GPRMC,103358.000,A,5058.4319,N,00505.6998,E,2.21,253.87,170313,,,A*66
$GPGGA,103359.000,5058.4318,N,00505.6998,E,1,10,0.87,38.3,M,47.4,M,,*58
$GPGSA,A,3,07,23,20,10,08,30,04,13,02,16,,,1.17,0.87,0.79*09
$GPGSV,3,1,11,13,80,069,42,04,57,240,33,10,53,291,45,23,52,065,48*7D
$GPGSV,3,2,11,02,38,300,39,07,32,169,42,20,21,114,37,30,13,047,42*73
$GPGSV,3,3,11,16,09,073,41,08,07,182,26,05,02,291,*4B
$GPRMC,103359.000,A,5058.4318,N,00505.6998,E,0.38,253.87,170313,,,A*6C
$GPGGA,103400.000,5058.4319,N,00505.7000,E,1,10,0.87,38.2,M,47.4,M,,*5A
$GPGSA,A,3,07,23,20,10,08,30,04,13,02,16,,,1.17,0.87,0.79*09
$GPGSV,3,1,11,13,80,069,42,04,57,240,33,10,53,291,45,23,52,065,48*7D
$GPGSV,3,2,11,02,38,300,39,07,32,169,42,20,21,114,37,30,13,047,42*73
$GPGSV,3,3,11,16,09,073,41,08,07,182,26,05,02,291,*4B
$GPRMC,103400.000,A,5058.4319,N,00505.7000,E,0.44,253.87,170313,,,A*64
$GPGGA,103401.000,5058.4319,N,00505.7002,E,1,10,0.87,38.2,M,47.4,M,,*59
$GPGSA,A,3,07,23,20,10,08,30,04,13,02,16,,,1.17,0.87,0.79*09
$GPGSV,3,1,11,13,79,069,42,04,57,240,33,10,53,291,45,23,52,065,48*7B
$GPGSV,3,2,11,02,38,300,39,07,32,169,42,20,21,114,37,30,13,047,42*73
$GPGSV,3,3,11,16,09,073,41,08,07,182,26,05,02,291,*4B
$GPRMC,103401.000,A,5058.4319,N,00505.7002,E,0.44,253.87,170313,,,A*67
$GPGGA,103402.000,5058.4323,N,00505.6999,E,1,10,0.87,38.3,M,47.4,M,,*58
$GPGSA,A,3,07,23,20,10,08,30,04,13,02,16,,,1.17,0.87,0.79*09
$GPGSV,3,1,11,13,79,069,42,04,57,240,33,10,53,291,45,23,52,065,48*7B
$GPGSV,3,2,11,02,38,300,39,07,32,169,42,20,21,114,37,30,13,047,42*73
$GPGSV,3,3,11,16,09,073,41,08,07,182,26,05,02,291,*4B
$GPRMC,103402.000,A,5058.4323,N,00505.6999,E,1.70,255.92,170313,,,A*63
$GPGGA,103403.000,5058.4323,N,00505.6996,E,1,10,0.87,38.2,M,47.4,M,,*57
$GPGSA,A,3,07,23,20,10,08,30,04,13,02,16,,,1.17,0.87,0.79*09
$GPGSV,3,1,11,13,79,069,41,04,57,240,32,10,53,291,44,23,52,065,47*77
$GPGSV,3,2,11,02,38,300,39,07,32,169,41,20,21,114,36,30,13,047,41*72
$GPGSV,3,3,11,16,09,073,41,08,07,182,25,05,02,291,*48
$GPRMC,103403.000,A,5058.4323,N,00505.6996,E,0.86,259.30,170313,,,A*61
$GPGGA,103404.000,5058.4322,N,00505.6996,E,1,10,0.87,38.1,M,47.4,M,,*52
$GPGSA,A,3,07,23,20,10,08,30,04,13,02,16,,,1.17,0.87,0.79*09
$GPGSV,3,1,11,13,79,069,42,04,57,240,32,10,53,291,44,23,52,065,47*74
$GPGSV,3,2,11,02,38,300,39,07,32,169,41,20,21,114,37,30,13,047,42*70
$GPGSV,3,3,11,16,09,073,41,08,07,182,25,05,02,291,*48
$GPRMC,103404.000,A,5058.4322,N,00505.6996,E,0.25,259.30,170313,,,A*6E
$GPGGA,103405.000,5058.4323,N,00505.6996,E,1,10,0.87,38.2,M,47.4,M,,*51
$GPGSA,A,3,07,23,20,10,08,30,04,13,02,16,,,1.17,0.87,0.79*09
$GPGSV,3,1,11,13,79,069,42,04,57,240,33,10,53,291,44,23,52,065,47*75
$GPGSV,3,2,11,02,38,300,39,07,32,169,41,20,21,114,37,30,13,047,42*70
$GPGSV,3,3,11,16,09,073,41,08,07,182,25,05,02,291,*48
$GPRMC,103405.000,A,5058.4323,N,00505.6996,E,1.12,25.80,170313,,,A*59
$GPGGA,103406.000,5058.4324,N,00505.6998,E,1,10,0.87,38.3,M,47.4,M,,*5A
$GPGSA,A,3,07,23,20,10,08,30,04,13,02,16,,,1.17,0.87,0.79*09
$GPGSV,3,1,11,13,79,069,42,04,57,240,33,10,53,291,44,23,52,065,47*75
$GPGSV,3,2,11,02,38,300,39,07,32,169,41,20,21,114,37,30,13,047,42*70
$GPGSV,3,3,11,16,09,073,41,08,07,182,25,05,02,291,*48
$GPRMC,103406.000,A,5058.4324,N,00505.6998,E,1.10,26.40,170313,,,A*5E
$GPGGA,103407.000,5058.4324,N,00505.7000,E,1,10,0.87,38.5,M,47.4,M,,*54
$GPGSA,A,3,07,23,20,10,08,30,04,13,02,16,,,1.17,0.87,0.79*09
$GPGSV,3,1,11,13,79,069,42,04,57,240,33,10,53,291,44,23,52,065,47*75
$GPGSV,3,2,11,02,38,300,39,07,32,169,41,20,21,114,37,30,13,047,42*70
$GPGSV,3,3,11,16,09,073,41,08,07,182,26,05,02,291,*4B
$GPRMC,103407.000,A,5058.4324,N,00505.7000,E,0.47,26.40,170313,,,A*55
$GPGGA,103408.000,5058.4325,N,00505.7000,E,1,10,0.87,38.4,M,47.4,M,,*5B
$GPGSA,A,3,07,23,20,10,08,30,04,13,02,16,,,1.17,0.87,0.79*09
$GPGSV,3,1,11,13,79,069,42,04,57,240,33,10,53,291,44,23,52,065,47*75
$GPGSV,3,2,11,02,38,300,39,07,32,169,41,20,21,114,37,30,13,047,42*70
$GPGSV,3,3,11,16,09,073,41,08,07,182,26,05,02,291,*4B
$GPRMC,103408.000,A,5058.4325,N,00505.7000,E,0.92,348.32,170313,,,A*6D
$GPGGA,103409.000,5058.4323,N,00505.7001,E,1,10,0.92,38.4,M,47.4,M,,*59
$GPGSA,A,3,07,23,20,10,08,30,04,13,02,16,,,1.58,0.92,1.29*02
$GPGSV,3,1,11,13,79,069,42,04,57,240,33,10,53,291,44,23,52,065,47*75
$GPGSV,3,2,11,02,38,300,39,07,32,169,41,20,21,114,37,30,13,047,42*70
$GPGSV,3,3,11,16,09,073,41,08,07,182,26,05,02,291,*4B
$GPRMC,103409.000,A,5058.4323,N,00505.7001,E,1.12,47.09,170313,,,A*56
$GPGGA,103410.000,5058.4324,N,00505.7003,E,1,10,0.87,38.5,M,47.4,M,,*51
$GPGSA,A,3,07,23,20,10,08,30,04,13,02,16,,,1.17,0.87,0.79*09
$GPGSV,3,1,11,13,79,069,43,04,57,240,33,10,53,291,44,23,52,065,47*74
$GPGSV,3,2,11,02,38,300,39,07,32,169,41,20,21,114,37,30,13,047,42*70
$GPGSV,3,3,11,16,09,073,41,08,07,182,26,05,02,291,*4B
$GPRMC,103410.000,A,5058.4324,N,00505.7003,E,1.11,45.88,170313,,,A*53
$GPGGA,103411.000,5058.4325,N,00505.7005,E,1,10,0.87,38.5,M,47.4,M,,*57
$GPGSA,A,3,07,23,20,10,08,30,04,13,02,16,,,1.17,0.87,0.79*09
$GPGSV,3,1,11,13,79,069,43,04,57,240,33,10,53,291,44,23,52,065,47*74
$GPGSV,3,2,11,02,38,300,39,07,32,169,41,20,21,114,37,30,13,047,42*70
$GPGSV,3,3,11,16,09,073,41,08,07,182,26,05,02,291,*4B
$GPRMC,103411.000,A,5058.4325,N,00505.7005,E,0.56,45.88,170313,,,A*57
$GPGGA,103412.000,5058.4325,N,00505.7007,E,1,10,0.87,38.5,M,47.4,M,,*56
$GPGSA,A,3,07,23,20,10,08,30,04,13,02,16,,,1.17,0.87,0.79*09
$GPGSV,3,1,11,13,79,069,43,04,57,240,33,10,53,291,44,23,52,065,47*74
$GPGSV,3,2,11,02,38,300,39,07,32,169,41,20,21,114,37,30,13,047,42*70
$GPGSV,3,3,11,16,09,073,41,08,07,182,26,05,02,291,*4B
$GPRMC,103412.000,A,5058.4325,N,00505.7007,E,0.32,45.88,170313,,,A*54
$GPGGA,103413.000,5058.4324,N,00505.7008,E,1,10,0.87,38.4,M,47.4,M,,*58
$GPGSA,A,3,07,23,20,10,08,30,04,13,02,16,,,1.17,0.87,0.79*09
$GPGSV,3,1,11,13,79,069,43,04,57,240,33,10,53,291,44,23,52,065,47*74
$GPGSV,3,2,11,02,38,300,40,07,32,169,41,20,21,114,37,30,13,047,42*7E
$GPGSV,3,3,11,16,09,073,41,08,07,182,26,05,02,291,*4B
$GPRMC,103413.000,A,5058.4324,N,00505.7008,E,0.33,45.88,170313,,,A*5A
$GPGGA,103414.000,5058.4323,N,00505.7006,E,1,10,0.87,38.4,M,47.4,M,,*56
$GPGSA,A,3,07,23,20,10,08,30,04,13,02,16,,,1.17,0.87,0.79*09
$GPGSV,3,1,11,13,79,069,43,04,57,240,33,10,53,291,44,23,52,065,47*74
$GPGSV,3,2,11,02,38,300,40,07,32,169,41,20,21,114,37,30,13,047,42*7E
$GPGSV,3,3,11,16,09,073,41,08,07,182,26,05,02,291,*4B
$GPRMC,103414.000,A,5058.4323,N,00505.7006,E,0.84,214.57,170313,,,A*6C
$GPGGA,103415.000,5058.4322,N,00505.7004,E,1,10,0.87,38.4,M,47.4,M,,*54
$GPGSA,A,3,07,23,20,10,08,30,04,13,02,16,,,1.17,0.87,0.79*09
$GPGSV,3,1,11,13,79,069,43,04,57,240,33,10,53,291,44,23,52,065,47*74
$GPGSV,3,2,11,02,38,300,40,07,32,169,40,20,21,114,37,30,13,047,42*7F
$GPGSV,3,3,11,16,09,073,41,08,07,182,26,05,02,291,*4B
$GPRMC,103415.000,A,5058.4322,N,00505.7004,E,1.35,215.64,170313,,,A*64
$GPGGA,103416.000,5058.4320,N,00505.7003,E,1,10,0.87,38.5,M,47.4,M,,*53
$GPGSA,A,3,07,23,20,10,08,30,04,13,02,16,,,1.17,0.87,0.79*09
$GPGSV,3,1,11,13,79,069,43,04,57,240,33,10,53,291,44,23,52,065,47*74
$GPGSV,3,2,11,02,38,300,40,07,32,169,40,20,21,114,37,30,13,047,42*7F
$GPGSV,3,3,11,16,09,073,41,08,07,182,27,05,02,291,*4A
$GPRMC,103416.000,A,5058.4320,N,00505.7003,E,1.33,218.58,170313,,,A*66
$GPGGA,103417.000,5058.4321,N,00505.7003,E,1,10,0.87,38.4,M,47.4,M,,*52
$GPGSA,A,3,07,23,20,10,08,30,04,13,02,16,,,1.17,0.87,0.79*09
$GPGSV,3,1,11,13,79,069,43,04,57,240,32,10,53,291,44,23,52,065,47*75
$GPGSV,3,2,11,02,38,300,40,07,32,169,40,20,21,114,37,30,13,047,42*7F
$GPGSV,3,3,11,16,09,073,41,08,07,182,27,05,02,291,*4A
$GPRMC,103417.000,A,5058.4321,N,00505.7003,E,0.11,218.58,170313,,,A*67
$GPGGA,103418.000,5058.4322,N,00505.7004,E,1,10,0.87,38.4,M,47.4,M,,*59
$GPGSA,A,3,07,23,20,10,08,30,04,13,02,16,,,1.17,0.87,0.79*09
$GPGSV,3,1,11,13,79,069,43,04,57,240,32,10,53,291,44,23,52,065,47*75
$GPGSV,3,2,11,02,38,300,40,07,32,169,40,20,21,114,37,30,13,046,42*7E
$GPGSV,3,3,11,16,09,073,41,08,07,182,26,05,02,291,*4B
$GPRMC,103418.000,A,5058.4322,N,00505.7004,E,0.32,218.58,170313,,,A*6D
$GPGGA,103419.000,5058.4323,N,00505.7005,E,1,10,0.87,38.3,M,47.4,M,,*5F
$GPGSA,A,3,07,23,20,10,08,30,04,13,02,16,,,1.17,0.87,0.79*09
$GPGSV,3,1,11,13,79,069,43,04,57,240,32,10,53,291,44,23,52,065,47*75
$GPGSV,3,2,11,02,38,300,40,07,32,169,40,20,21,114,37,30,13,046,42*7E
$GPGSV,3,3,11,16,09,073,41,08,07,182,26,05,02,291,*4B
$GPRMC,103419.000,A,5058.4323,N,00505.7005,E,1.14,235.86,170313,,,A*65
$GPGGA,103420.000,5058.4324,N,00505.7004,E,1,10,0.87,38.3,M,47.4,M,,*53
$GPGSA,A,3,07,23,20,10,08,30,04,13,02,16,,,1.17,0.87,0.79*09
$GPGSV,3,1,11,13,79,069,43,04,57,240,31,10,53,291,44,23,52,065,47*76
$GPGSV,3,2,11,02,38,300,39,07,32,169,40,20,21,114,37,30,13,046,42*70
$GPGSV,3,3,11,16,09,073,41,08,07,182,26,05,02,291,*4B
